Time,Latitude,Longitude,Depth,Total Log,Rudder,Pitch,Roll,Heading,STW,COG,SOG,TWD,TWA,TWS,AWA,AWS,AWS (max),Water Temperature,RPM #1,Engine Hours #1,Coolant Temperature #1,Fuel #1,Water #1,Water #2,Battery #1,Bank 1
"7/25/2021, 3:31:00 PM",38.9667058,-76.4797175,9.64567,656.5,6,0.0,-6.0,254.6,0.0,0.0,0.1,192.1,,,-62.3,17.8,17.8,34.5,799,192.5,77,64.0,99.2,99.2,13.2,"1 0 0 0"
"7/25/2021, 3:26:00 PM",38.9665420,-76.4799065,9.44882,656.5,-21.5,-0.3,-6.0,317.5,0.0,128.6,1.2,176.5,-141.0,11.6,-137.0,10.7,16.8,34.5,2146,192.5,77,62.8,99.2,99.2,13.4,"1 0 0 0"
"7/25/2021, 3:21:00 PM",38.9681648,-76.4759610,8.23491,656.5,-1,0.3,-6.0,248.7,0.0,238.0,3.8,166.6,-82.1,8.5,-59.5,9.7,19.0,34,1079,192.5,77,64.4,99.2,99.2,13.7,"1 0 0 0"
"7/25/2021, 3:16:00 PM",38.9669250,-76.4652763,16.46982,656.5,1,1.0,-5.3,285.9,0.0,274.9,7.7,187.1,-98.8,16.6,-72.6,17.2,20.8,34,2676,192.25,79,68.0,99.2,99.2,13.8,"1 0 0 0"
"7/25/2021, 3:11:00 PM",38.9652535,-76.4520253,12.72966,656.5,9.25,1.0,0.8,291.6,0.0,286.7,7.4,178.6,-113.0,14.6,-82.8,13.5,25.4,33.5,2679,192.25,79,57.6,99.2,99.2,13.9,"1 0 0 0"
"7/25/2021, 3:06:00 PM",38.9653833,-76.4446566,19.98031,656.5,3,0.5,-1.0,287.7,0.0,288.0,3.6,172.7,-115.0,11.9,-97.6,10.8,24.3,33.5,803,192.25,78,63.6,99.2,99.2,13.7,"1 0 0 0"
"7/25/2021, 3:01:00 PM",38.9688658,-76.4338648,20.96457,656.5,-1,1.5,1.5,243.1,0.0,236.4,8.5,172.7,-70.4,15.8,-47.2,20.3,23.4,33,2740,192,79,76.4,99.2,95.6,13.8,"1 0 0 0"
"7/25/2021, 2:56:00 PM",38.9743730,-76.4210525,13.64829,656.5,-0.25,2.3,0.3,249.2,0.0,242.8,7.2,180.2,-69.0,15.4,-48.5,19.2,25.0,33,2739,192,79,79.6,99.2,95.6,13.8,"1 0 0 0"
"7/25/2021, 2:51:00 PM",38.9796651,-76.4085191,27.78871,656.5,-3,0.0,2.0,248.5,0.0,242.9,8.5,193.9,-54.6,13.9,-34.4,20.0,26.4,33,2738,192,79,74.8,99.2,94.0,13.8,"1 0 0 0"
"7/25/2021, 2:46:00 PM",38.9857802,-76.3970293,27.29659,656.5,-0.25,1.0,-6.3,245.8,0.0,232.5,7.6,190.9,-54.9,13.9,-36.2,19.3,24.4,33,2575,191.75,79,65.6,99.2,99.2,13.8,"1 0 0 0"
"7/25/2021, 2:41:00 PM",38.9926395,-76.3854596,39.46850,656.5,-0.25,2.3,-5.3,238.2,0.0,221.3,7.7,182.5,-55.7,15.0,-37.5,20.4,27.9,33.5,2573,191.75,79,67.6,99.2,99.2,13.8,"1 0 0 0"
"7/25/2021, 2:36:00 PM",39.0030012,-76.3801598,42.19160,656.5,0,-0.8,-3.5,223.8,0.0,209.8,7.6,207.0,-16.8,16.8,-11.6,24.1,27.1,33.5,2575,191.75,79,65.2,99.2,97.2,13.9,"1 0 0 0"
"7/25/2021, 2:31:00 PM",39.0125290,-76.3738633,59.15354,656.5,0,0.8,-4.3,213.7,0.0,204.2,7.4,197.0,-16.7,15.2,-11.3,22.4,25.7,33.5,2572,191.5,79,68.0,99.2,99.2,13.9,"1 0 0 0"
"7/25/2021, 2:26:00 PM",39.0222425,-76.3684810,54.49475,656.5,0,1.0,-4.5,214.5,0.0,207.0,7.6,191.8,-22.7,15.2,-15.2,22.4,25.8,33.5,2575,191.5,79,66.8,99.2,99.2,13.8,"1 0 0 0"
"7/25/2021, 2:21:00 PM",39.0318432,-76.3626880,44.38976,656.5,0.25,0.5,-4.5,214.9,0.0,206.8,7.7,195.7,-19.2,16.3,-13.1,23.7,25.3,33.5,2573,191.5,79,69.6,99.2,99.2,13.8,"1 0 0 0"
"7/25/2021, 2:16:00 PM",39.0412893,-76.3562759,38.48425,656.5,0.25,0.3,-3.8,215.8,0.0,212.5,7.2,203.0,-12.8,16.0,-8.9,23.1,25.3,33.5,2572,191.25,79,69.6,99.2,99.2,13.8,"1 0 0 0"
"7/25/2021, 2:11:00 PM",39.0503616,-76.3496000,36.90945,656.5,0,1.5,-5.8,217.0,0.0,212.2,7.2,202.5,-14.5,12.0,-9.1,19.1,24.5,33.5,2574,191.25,79,65.6,99.2,99.2,13.9,"1 0 0 0"
"7/25/2021, 2:06:00 PM",39.0593042,-76.3425626,34.54724,656.5,0.25,0.8,-6.0,217.9,0.0,211.1,7.6,210.4,-7.5,11.9,-4.6,19.5,24.6,33.5,2572,191.25,79,65.2,99.2,99.2,13.8,"1 0 0 0"
"7/25/2021, 2:01:00 PM",39.0680850,-76.3357061,31.36483,656.5,0.5,0.8,-4.8,218.8,0.0,210.5,7.4,204.2,-14.6,13.1,-9.4,20.4,22.8,33.5,2576,191,79,67.2,99.2,99.2,13.8,"1 0 0 0"
"7/25/2021, 1:56:00 PM",39.0768053,-76.3288758,28.64173,656.5,0,0.8,-5.5,219.2,0.0,206.8,7.3,200.4,-18.8,13.4,-12.2,20.4,22.5,33.5,2573,191,79,71.6,99.2,99.2,13.7,"1 0 0 0"
"7/25/2021, 1:51:00 PM",39.0851709,-76.3223719,26.67323,656.5,5.5,0.5,-6.5,218.8,0.0,207.1,7.0,214.1,-4.7,11.7,-3.0,18.7,23.2,33.5,2439,191,79,68.4,99.2,99.2,13.8,"1 0 0 0"
"7/25/2021, 1:46:00 PM",39.0936990,-76.3182756,25.09843,656.5,0,0.5,-4.0,219.1,0.0,211.5,6.5,196.5,-22.6,14.3,-15.6,20.4,24.4,33.5,2324,190.75,78,68.0,99.2,99.2,13.7,"1 0 0 0"
"7/25/2021, 1:41:00 PM",39.1016720,-76.3123963,25.68898,656.5,0,1.8,-6.3,222.6,0.0,211.6,6.3,189.7,-32.9,13.4,-22.6,19.0,22.1,33.5,2147,190.75,78,64.4,99.2,99.2,13.7,"1 0 0 0"
"7/25/2021, 1:36:00 PM",39.1076508,-76.3075696,27.16535,656.5,-0.25,0.8,-3.5,223.6,0.0,215.0,5.3,203.4,-20.2,14.2,-14.8,19.2,21.3,33.5,1895,190.75,78,69.6,99.2,99.2,13.6,"1 0 0 0"
"7/25/2021, 1:31:00 PM",39.1117008,-76.3069188,29.13386,656.5,-0.5,1.0,-6.0,216.5,0.0,203.6,3.9,199.6,-16.9,12.8,-13.0,16.5,21.7,33.5,1508,190.5,77,67.2,99.2,99.2,13.6,"1 0 0 0"
"7/25/2021, 1:26:00 PM",39.1151508,-76.3095530,31.10236,656.5,-2.5,1.3,-8.5,115.9,0.0,107.9,4.7,210.3,94.4,14.1,75.7,14.5,19.4,33.5,865,190.5,67,62.8,99.2,99.2,13.3,"1 0 0 0"
"7/25/2021, 1:21:00 PM",39.1111989,-76.3161268,25.19685,656.5,-1,-0.5,-12.8,52.2,0.0,30.3,5.4,200.2,148.0,14.4,132.0,10.3,15.1,33.5,,,,67.6,99.2,99.2,,"1 0 0 0"
"7/25/2021, 1:16:00 PM",39.1056405,-76.3228424,23.72047,656.5,-3.75,0.5,-10.0,53.9,0.0,46.5,5.9,198.8,144.9,15.3,127.1,11.0,16.9,33.5,,,,62.8,99.2,99.2,,"1 0 0 0"
"7/25/2021, 1:11:00 PM",39.0996704,-76.3299264,22.73622,656.5,0,0.0,-9.3,55.7,0.0,42.5,6.0,193.7,138.0,18.0,121.6,14.2,25.0,33,,,,62.8,99.2,99.2,,"1 0 0 0"
"7/25/2021, 1:06:00 PM",39.1000197,-76.3206883,24.21260,656.5,1.25,0.5,2.5,289.2,0.0,280.9,7.5,191.1,-98.1,13.4,-67.2,14.4,20.4,33.5,,,,81.2,99.2,99.2,,"1 0 0 0"
"7/25/2021, 1:01:00 PM",39.0995511,-76.3067805,26.67323,656.5,2.75,0.8,5.3,286.5,0.0,278.7,8.1,199.9,-86.6,13.4,-56.5,16.1,19.5,33.5,,,,90.0,99.2,98.0,,"1 0 0 0"
"7/25/2021, 12:56:00 PM",39.0983936,-76.2931328,25.68898,656.5,0.75,0.5,1.8,282.1,0.0,270.5,7.8,208.0,-74.1,12.8,-47.6,16.8,19.0,33.5,,,,89.6,99.2,99.2,,"1 0 0 0"
"7/25/2021, 12:51:00 PM",39.0978332,-76.2804718,20.60367,656.5,-1,-0.5,2.8,288.0,0.0,283.1,6.3,227.1,-60.9,9.8,-37.8,14.0,17.4,33.5,,,,80.0,99.2,97.2,,"1 0 0 0"
"7/25/2021, 12:46:00 PM",39.0973056,-76.2688576,12.30315,656.5,1.25,0.5,-1.0,273.9,0.0,258.2,6.0,208.8,-65.1,9.7,-41.2,13.4,16.8,33.5,,,,81.6,99.2,99.2,,"1 0 0 0"
"7/25/2021, 12:41:00 PM",39.0981590,-76.2615810,11.90945,656.5,-0.5,0.5,-3.8,256.9,0.0,237.4,0.8,211.3,-45.6,9.4,-42.4,10.0,19.6,33.5,,,,68.0,99.2,99.2,,"1 0 0 0"
"7/25/2021, 12:36:00 PM",39.1012105,-76.2590215,14.92782,656.5,-0.25,0.5,-7.0,186.8,0.0,172.5,6.0,219.2,32.4,13.4,22.6,18.8,22.1,33.5,1883,190.5,79,64.0,99.2,99.2,13.9,"1 0 0 0"
"7/25/2021, 12:31:00 PM",39.1111910,-76.2605541,13.94357,656.5,0,0.5,-6.0,187.6,0.0,179.9,7.8,227.0,39.4,12.5,24.5,19.2,24.0,33.5,2596,190.25,79,66.0,99.2,99.2,13.9,"1 0 0 0"
"7/25/2021, 12:26:00 PM",39.1211768,-76.2613661,12.53281,656.5,-0.25,0.8,-6.8,192.1,0.0,184.2,6.5,223.7,31.6,13.3,21.4,19.1,22.7,33.5,2598,190.25,79,64.4,99.2,99.2,13.9,"1 0 0 0"
"7/25/2021, 12:21:00 PM",39.1301148,-76.2620895,11.18766,656.5,-0.25,0.5,-8.8,192.7,0.0,175.0,6.1,216.2,23.5,14.6,16.7,20.4,23.5,33.5,2349,190.25,79,64.4,99.2,99.2,13.9,"1 0 0 0"
"7/25/2021, 12:16:00 PM",39.1384946,-76.2631485,8.89108,656.5,1,0.5,-7.3,177.5,0.0,161.9,6.1,221.0,43.5,16.1,32.0,21.0,23.2,33.5,2099,190,78,62.0,99.2,99.2,14.0,"1 0 0 0"
"7/25/2021, 12:11:00 PM",39.1460512,-76.2620928,15.74803,656.5,-1.5,0.3,-5.8,220.4,0.0,208.7,5.9,222.6,2.2,14.1,1.6,19.9,20.9,33.5,1997,190,78,69.6,99.2,99.2,14.0,"1 0 0 0"
"7/25/2021, 12:06:00 PM",39.1481663,-76.2533789,7.61155,656.5,0.25,0.3,-5.8,339.5,0.0,329.5,4.4,228.2,-111.3,13.9,-92.9,12.9,16.4,33.5,1414,190,67,69.6,99.2,99.2,14.0,"1 0 0 0"
"7/25/2021, 12:01:00 PM",39.1435872,-76.2492992,6.06955,656.5,-0.25,0.3,-6.0,348.1,0.0,338.5,2.4,229.0,-119.1,10.1,-106.1,9.2,18.0,33.5,799,189.75,50,69.6,99.2,99.2,13.8,"1 0 0 0"
"7/25/2021, 11:56:00 AM",39.1426582,-76.2491435,6.69291,656.5,-1.5,0.0,-6.3,51.5,0.0,0.0,0.1,230.5,,,179.0,17.8,17.9,33.5,800,189.75,31,69.6,99.2,85.6,13.2,"1 0 0 0"
"7/25/2021, 11:51:00 AM",39.1426464,-76.2490880,6.75853,656.5,-0.5,0.3,-6.0,47.5,0.0,0.0,0.0,219.1,,,171.6,13.5,18.6,33.5,,,,69.6,99.2,85.6,,"1 0 0 0"
"7/25/2021, 11:46:00 AM",39.1426412,-76.2491601,6.75853,656.5,-0.5,0.3,-6.0,46.3,0.0,191.1,0.3,228.1,,,-178.2,10.4,19.3,33.5,,,,69.6,99.2,85.6,,"1 0 0 0"
"7/25/2021, 11:41:00 AM",39.1426685,-76.2491601,6.88976,656.5,-0.5,0.0,-6.0,46.7,0.0,0.0,0.1,226.0,,,179.4,12.6,19.5,33.5,,,,69.6,99.2,85.6,,"1 0 0 0"
"7/25/2021, 11:36:00 AM",39.1426563,-76.2491261,6.88976,656.5,-0.5,0.3,-6.0,47.0,0.0,0.0,0.1,229.6,,,-177.4,11.2,20.4,33.5,,,,69.6,99.2,85.6,,"1 0 0 0"
"7/25/2021, 11:31:00 AM",39.1426653,-76.2491106,6.92257,656.5,-0.5,0.0,-6.0,46.0,0.0,136.5,0.4,223.8,,,177.8,8.4,19.3,33.5,,,,69.6,99.2,85.6,,"1 0 0 0"
"7/25/2021, 11:26:00 AM",39.1426351,-76.2491586,6.98819,656.5,-0.5,0.3,-5.8,46.9,0.0,0.0,0.1,234.3,,,-172.6,10.3,17.5,33.5,,,,69.6,99.2,85.6,,"1 0 0 0"
"7/25/2021, 11:21:00 AM",39.1426656,-76.2490624,7.05381,656.5,-0.5,0.0,-6.0,46.0,0.0,260.8,0.3,211.3,,,164.9,10.0,19.8,33.5,,,,69.6,99.2,85.6,,"1 0 0 0"
"7/25/2021, 11:16:00 AM",39.1426495,-76.2491135,6.92257,656.5,-0.5,0.0,-5.5,47.2,0.0,351.5,0.3,215.3,,,167.9,13.6,15.8,33.5,,,,69.6,99.2,85.6,,"1 0 0 0"
"7/25/2021, 11:11:00 AM",39.1426562,-76.2491246,6.98819,656.5,0,0.0,-6.0,46.3,0.0,0.0,0.1,228.6,,,-177.7,3.2,17.2,33.5,,,,69.6,99.2,85.6,,"1 0 0 0"
"7/25/2021, 11:06:00 AM",39.1426118,-76.2490996,7.05381,656.5,-0.5,0.0,-5.8,46.0,0.0,0.0,0.1,200.4,,,154.3,12.6,16.5,33.5,,,,69.6,99.2,85.6,,"1 0 0 0"
"7/25/2021, 11:01:00 AM",39.1426466,-76.2491443,7.18504,656.5,0,0.0,-6.0,45.8,0.0,217.7,0.3,215.4,,,169.4,11.1,16.7,33.5,,,,69.6,99.2,85.6,,"1 0 0 0"
"7/25/2021, 10:56:00 AM",39.1426713,-76.2491408,7.18504,656.5,-0.5,0.0,-5.8,46.0,0.0,0.0,0.0,213.5,,,167.5,14.7,17.0,33.5,,,,69.6,99.2,85.6,,"1 0 0 0"
"7/25/2021, 10:51:00 AM",39.1426720,-76.2490880,7.11942,656.5,-0.5,0.0,-5.8,45.9,0.0,0.0,0.1,213.1,,,167.1,8.6,16.9,33.5,,,,69.6,99.2,85.6,,"1 0 0 0"
"7/25/2021, 10:46:00 AM",39.1426517,-76.2491295,7.18504,656.5,-0.5,0.0,-6.0,46.0,0.0,270.8,0.0,218.9,,,172.9,15.3,17.5,33.5,,,,69.6,99.2,85.6,,"1 0 0 0"
"7/25/2021, 10:41:00 AM",39.1426283,-76.2491476,7.18504,656.5,-0.5,0.0,-6.0,47.1,0.0,0.0,0.1,196.0,,,148.7,11.7,17.1,33.5,,,,69.6,99.2,85.6,,"1 0 0 0"
"7/25/2021, 10:36:00 AM",39.1426546,-76.2491321,7.25066,656.5,-0.5,0.0,-6.0,45.8,0.0,0.0,0.1,210.6,,,164.7,9.5,17.6,33.5,,,,69.6,99.2,85.6,,"1 0 0 0"
"7/25/2021, 10:31:00 AM",39.1426243,-76.2491333,7.25066,656.5,-0.5,0.3,-6.5,46.8,0.0,0.0,0.1,198.3,,,151.1,6.4,21.1,33.5,,,,69.6,99.2,85.6,,"1 0 0 0"
"7/25/2021, 10:26:00 AM",39.1426488,-76.2491166,7.31627,656.5,-0.5,0.3,-6.5,47.0,0.0,0.0,0.2,210.2,,,163.0,11.2,17.6,33,,,,69.6,99.2,85.6,,"1 0 0 0"
"7/25/2021, 10:21:00 AM",39.1427008,-76.2491008,7.41470,656.5,-0.5,0.3,-6.3,46.2,0.0,0.0,0.1,199.2,,,152.8,10.7,20.0,33,,,,69.6,99.2,85.6,,"1 0 0 0"
"7/25/2021, 10:16:00 AM",39.1426457,-76.2491470,7.31627,656.5,-0.5,0.3,-6.3,46.7,0.0,0.0,0.1,218.8,,,172.1,11.7,15.4,33,,,,69.6,99.2,85.6,,"1 0 0 0"
"7/25/2021, 10:11:00 AM",39.1426461,-76.2491088,7.31627,656.5,-0.5,0.3,-6.3,46.4,0.0,0.0,0.1,232.3,,,-174.1,11.4,18.4,33,,,,69.6,99.2,85.6,,"1 0 0 0"
"7/25/2021, 10:06:00 AM",39.1426392,-76.2491004,7.41470,656.5,-0.5,0.3,-6.3,47.4,0.0,0.0,0.1,226.0,,,178.6,9.7,15.4,33,,,,69.6,99.2,85.6,,"1 0 0 0"
"7/25/2021, 10:01:00 AM",39.1426333,-76.2491260,7.41470,656.5,-0.5,0.3,-6.5,47.3,0.0,75.6,0.4,226.2,,,178.9,9.4,18.2,33,,,,69.6,99.2,85.6,,"1 0 0 0"
"7/25/2021, 9:56:00 AM",39.1426600,-76.2491041,7.48031,656.5,-0.5,0.3,-6.5,46.2,0.0,0.0,0.2,238.8,,,-167.3,12.3,17.8,33,,,,69.6,99.2,85.6,,"1 0 0 0"
"7/25/2021, 9:51:00 AM",39.1426592,-76.2490944,7.48031,656.5,-0.5,0.3,-7.0,47.6,0.0,0.0,0.1,201.0,,,153.2,10.9,18.3,33.5,,,,69.6,99.2,63.6,,"1 0 0 0"
"7/25/2021, 9:46:00 AM",39.1426912,-76.2490944,7.54593,656.5,-0.5,0.3,-6.5,47.1,0.0,,0.1,207.3,,,160.1,10.8,16.7,33.5,,,,69.6,99.6,25.2,,"1 0 0 0"
"7/24/2021, 5:34:00 PM",39.1426717,-76.2491340,6.06955,656.5,0.25,0.3,-5.8,45.9,0.0,194.8,0.2,191.5,,,145.0,9.6,17.6,35,,,,69.2,99.2,54.0,,"1 0 0 0"
"7/24/2021, 5:29:00 PM",39.1426540,-76.2491638,5.93832,656.5,0.25,0.3,-5.5,45.8,0.0,142.5,0.4,195.4,,,148.6,10.9,17.6,35,800,189.75,71,69.2,99.2,54.0,12.8,"1 0 0 0"
"7/24/2021, 5:24:00 PM",39.1426555,-76.2491375,5.93832,656.5,0.25,0.3,-5.8,47.1,0.0,191.2,0.3,209.2,,,161.7,10.3,14.4,35,,,,69.2,99.2,54.0,,"1 0 0 0"
"7/24/2021, 5:19:00 PM",39.1426445,-76.2491731,5.90551,656.5,0.25,0.3,-6.3,46.4,0.0,0.0,0.1,181.5,,,134.8,10.2,17.0,35,,,,69.2,99.2,54.0,,"1 0 0 0"
"7/24/2021, 5:14:00 PM",39.1426558,-76.2491275,5.90551,656.5,0,0.0,-6.0,49.9,0.0,133.6,0.3,200.9,,,150.4,12.1,17.0,35,,,,69.2,99.2,54.0,,"1 0 0 0"
"7/24/2021, 5:09:00 PM",39.1426523,-76.2491063,5.83990,656.5,0,0.3,-6.3,47.5,0.0,0.0,0.2,216.4,,,168.8,11.0,14.5,35,798,189.75,77,69.2,99.2,63.6,13.1,"1 0 0 0"
"7/24/2021, 5:04:00 PM",39.1429070,-76.2489441,5.93832,656.5,-16.75,0.3,-5.3,122.3,0.0,228.8,0.6,213.8,91.5,6.9,86.7,6.9,17.5,35,1490,189.5,77,69.2,99.2,54.0,13.4,"1 0 0 0"
"7/24/2021, 4:59:00 PM",39.1484055,-76.2533871,6.62730,656.5,-0.75,0.8,-6.0,164.2,0.0,151.1,4.5,205.2,41.0,5.6,22.8,9.4,16.9,35,1929,189.5,77,69.2,99.2,58.8,13.5,"1 0 0 0"
"7/24/2021, 4:54:00 PM",39.1509413,-76.2545636,,656.5,-4.25,0.3,-5.5,222.2,0.0,0.0,0.2,200.4,,,-21.5,10.6,14.9,35.5,2641,189.5,70,69.2,99.2,63.6,13.6,"1 0 0 0"
"7/24/2021, 4:49:00 PM",39.1509448,-76.2546201,,656.5,-1.5,0.5,-5.8,198.5,0.0,111.3,0.3,194.8,,,-3.6,9.1,16.4,35.5,,,,69.2,99.2,63.6,,"1 0 0 0"
"7/24/2021, 4:44:00 PM",39.1509323,-76.2546188,5.77428,656.5,-1.5,0.5,-6.5,172.6,0.0,0.0,0.1,197.3,,,24.6,16.5,16.7,35.5,,,,69.2,99.2,63.6,,"1 0 0 0"
"7/24/2021, 4:39:00 PM",39.1509513,-76.2545996,,656.5,-1.5,0.5,-5.3,207.7,0.0,269.7,0.3,197.3,,,-10.0,7.5,14.8,35.5,,,,69.2,99.2,63.6,,"1 0 0 0"
"7/24/2021, 4:34:00 PM",39.1509395,-76.2545636,5.90551,656.5,-1.5,0.3,-6.8,196.5,0.0,123.1,0.4,194.3,,,-2.2,11.4,15.9,35.5,,,,69.2,99.2,74.0,,"1 0 0 0"
"7/24/2021, 4:29:00 PM",39.1509303,-76.2546248,,656.5,-1.5,0.3,-6.3,179.4,0.0,99.2,0.3,208.2,,,28.1,10.8,14.5,35.5,,,,69.2,99.2,74.0,,"1 0 0 0"
"7/24/2021, 4:24:00 PM",39.1509302,-76.2546643,5.57743,656.5,-1.5,0.5,-6.0,170.0,0.0,61.8,0.3,209.5,,,38.5,9.8,13.4,35.5,,,,69.2,99.2,74.0,,"1 0 0 0"
"7/24/2021, 4:19:00 PM",39.1509237,-76.2545328,,656.5,-1.5,0.3,-6.3,204.8,0.0,0.0,0.1,213.6,,,8.8,9.8,12.9,35.5,,,,69.2,99.2,74.0,,"1 0 0 0"
"7/24/2021, 4:14:00 PM",39.1509415,-76.2546243,,656.5,-2.25,0.3,-6.3,179.4,0.0,89.6,0.4,209.7,,,29.4,11.7,14.3,35.5,,,,69.2,99.2,85.2,,"1 0 0 0"
"7/24/2021, 4:09:00 PM",39.1509213,-76.2545795,,656.5,-0.5,0.5,-5.8,206.4,0.0,304.2,0.5,201.0,,,-5.2,12.2,14.1,35.5,,,,69.2,99.2,74.0,,"1 0 0 0"
"7/24/2021, 4:04:00 PM",39.1508704,-76.2545856,5.64304,656.5,-2.25,0.5,-5.3,220.9,0.0,270.2,0.3,194.0,,,-26.3,11.8,14.1,35.5,,,,69.2,99.2,74.0,,"1 0 0 0"
"7/24/2021, 3:59:00 PM",39.1509418,-76.2546445,,656.5,-2.25,0.3,-6.8,188.3,0.0,259.0,0.3,212.9,,,24.0,10.7,15.1,35.5,,,,69.2,99.2,85.2,,"1 0 0 0"
"7/24/2021, 3:54:00 PM",39.1509225,-76.2545591,,656.5,1.25,0.3,-6.3,222.2,0.0,257.7,0.6,198.1,-24.1,11.8,-23.0,12.4,16.4,35.5,,,,69.2,99.2,85.2,,"1 0 0 0"
"7/24/2021, 3:49:00 PM",39.1509338,-76.2545761,5.44619,656.5,-1.5,0.3,-6.5,190.9,0.0,167.5,0.5,219.0,,,27.1,13.1,14.4,35.5,,,,69.2,99.2,85.2,,"1 0 0 0"
"7/24/2021, 3:44:00 PM",39.1509062,-76.2545383,,656.5,0.25,0.5,-5.8,216.9,0.0,321.5,0.7,212.2,-4.7,9.1,-4.4,9.8,12.7,35.5,,,,69.2,99.2,85.2,,"1 0 0 0"
"7/24/2021, 3:39:00 PM",39.1509118,-76.2545495,5.57743,656.5,-1.75,0.5,-6.0,223.3,0.0,278.5,0.4,209.3,,,-13.4,8.6,14.2,35,,,,69.2,99.2,85.2,,"1 0 0 0"
"7/24/2021, 3:34:00 PM",39.1509123,-76.2545221,,656.5,-1.75,0.3,-6.3,195.6,0.0,179.3,0.2,219.1,,,23.2,11.6,16.5,35,,,,69.2,99.2,85.2,,"1 0 0 0"
"7/24/2021, 3:29:00 PM",39.1509083,-76.2545223,,656.5,-0.5,0.5,-6.0,215.0,0.0,0.0,0.1,204.3,,,-10.6,8.1,13.6,35,,,,69.2,99.2,85.2,,"1 0 0 0"
"7/24/2021, 3:24:00 PM",39.1508913,-76.2544953,5.57743,656.5,0,0.5,-5.3,224.2,0.0,254.8,0.3,210.7,,,-13.2,12.5,14.1,35,,,,69.2,99.2,85.2,,"1 0 0 0"
"7/24/2021, 3:19:00 PM",39.1509220,-76.2545880,,656.5,0,0.5,-6.5,192.7,0.0,229.7,0.3,219.4,,,26.1,11.6,13.2,35,,,,69.2,99.2,85.2,,"1 0 0 0"
"7/24/2021, 3:09:00 PM",39.1509038,-76.2545026,,656.5,0,0.3,-5.8,221.9,0.0,0.0,0.1,206.1,,,-15.8,13.6,14.1,35,,,,69.2,99.2,85.2,,"1 0 0 0"
"7/24/2021, 3:04:00 PM",39.1508890,-76.2544780,,656.5,0,0.3,-6.3,222.5,0.0,253.5,0.2,206.6,,,-15.9,9.9,12.1,35,,,,69.2,99.2,85.2,,"1 0 0 0"
"7/24/2021, 2:59:00 PM",39.1508810,-76.2544903,,656.5,0,0.3,-5.8,234.7,0.0,290.3,0.5,214.8,,,-19.9,9.9,13.4,35,,,,69.2,99.2,85.2,,"1 0 0 0"
"7/24/2021, 2:54:00 PM",39.1509015,-76.2545448,,656.5,0.75,0.3,-5.8,214.8,0.0,0.0,0.1,204.7,,,-10.1,9.7,12.0,35,,,,69.2,99.2,85.2,,"1 0 0 0"
"7/24/2021, 2:49:00 PM",39.1509097,-76.2545326,,656.5,0,0.3,-6.8,191.7,0.0,334.5,0.3,232.8,,,41.1,9.7,13.1,35,,,,69.2,99.2,85.6,,"1 0 0 0"
"7/24/2021, 2:44:00 PM",39.1508920,-76.2545025,,656.5,0,0.3,-5.5,226.0,0.0,270.9,0.4,216.0,,,-10.0,11.3,13.4,35.5,,,,69.2,99.2,85.2,,"1 0 0 0"
"7/24/2021, 2:39:00 PM",39.1508765,-76.2544861,,656.5,0.25,0.5,-5.8,231.4,0.0,312.5,0.4,220.2,,,-11.2,10.0,12.2,35,,,,69.2,99.2,85.2,,"1 0 0 0"
"7/24/2021, 2:34:00 PM",39.1508413,-76.2544223,,656.5,0.25,0.5,-5.3,251.4,0.0,0.0,0.2,230.8,,,-20.6,8.0,12.8,35,,,,69.2,99.2,85.2,,"1 0 0 0"
"7/24/2021, 2:29:00 PM",39.1508417,-76.2544211,5.51181,656.5,0.25,0.5,-5.3,246.2,0.0,258.7,0.6,225.8,-20.4,10.8,-20.4,10.8,13.5,35,,,,69.6,99.2,85.6,,"1 0 0 0"
"7/24/2021, 2:24:00 PM",39.1508384,-76.2545280,5.44619,656.5,0.25,0.5,-6.0,204.9,0.0,0.0,0.1,221.8,,,16.9,10.0,11.1,35,,,,69.2,99.2,85.2,,"1 0 0 0"
"7/24/2021, 2:19:00 PM",39.1507165,-76.2545583,4.95407,656.5,0.25,0.3,-5.8,241.6,0.0,48.8,1.4,227.4,-14.2,9.5,-14.2,9.5,11.8,35,1274,189.25,77,69.6,99.2,85.6,13.5,"1 0 0 0"
"7/24/2021, 2:14:00 PM",39.1475157,-76.2575641,6.43045,656.5,-1.25,0.5,-5.5,83.3,0.0,75.3,6.1,184.8,101.5,6.5,101.5,6.5,9.6,35,2029,189.25,78,69.2,99.2,85.2,13.8,"1 0 0 0"
"7/24/2021, 2:09:00 PM",39.1402355,-76.2635930,8.95669,656.5,-1.5,-0.3,-7.8,9.3,0.0,357.5,6.7,273.8,-95.5,7.7,-95.5,7.7,14.4,34.5,1078,189,80,70.0,99.2,90.4,13.8,"1 0 0 0"
"7/24/2021, 2:04:00 PM",39.1298491,-76.2615070,9.87533,656.5,-1,1.0,-3.3,8.1,0.0,3.8,7.1,280.0,-88.1,2.6,-88.1,2.6,8.6,34.5,2765,189,79,65.6,99.2,94.8,13.8,"1 0 0 0"
"7/24/2021, 1:59:00 PM",39.1193517,-76.2598990,15.35433,656.5,0,0.8,-6.5,358.6,0.0,352.8,7.6,263.1,-95.5,7.2,-95.5,7.2,13.1,34.5,2765,189,79,70.0,99.2,90.0,13.8,"1 0 0 0"
"7/24/2021, 1:54:00 PM",39.1091498,-76.2563640,17.88058,656.5,-0.25,0.8,-3.8,354.1,0.0,346.8,7.7,280.5,-73.6,4.8,-73.6,4.8,8.6,34.5,2766,188.75,79,70.0,99.2,94.8,13.8,"1 0 0 0"
"7/24/2021, 1:49:00 PM",39.0989040,-76.2579375,14.07480,656.5,-0.5,0.8,-6.3,44.6,0.0,36.7,8.0,114.0,69.4,2.6,69.4,2.6,7.0,34.5,2765,188.75,79,68.0,99.2,93.2,13.8,"1 0 0 0"
"7/24/2021, 1:44:00 PM",39.0909160,-76.2676230,11.81102,656.5,2,0.8,-7.8,51.8,0.0,40.1,7.8,114.3,62.5,3.6,62.5,3.6,8.4,35,2766,188.75,79,72.8,99.2,92.8,13.8,"1 0 0 0"
"7/24/2021, 1:39:00 PM",39.0831832,-76.2776478,24.21260,656.5,1,0.8,-7.5,53.3,0.0,38.7,7.5,130.4,77.1,5.8,77.1,5.8,8.8,34.5,2763,188.5,80,72.8,99.2,89.6,13.8,"1 0 0 0"
"7/24/2021, 1:34:00 PM",39.0756933,-76.2878280,25.19685,656.5,1.25,0.5,-7.3,54.7,0.0,44.2,8.0,109.5,54.8,4.7,54.8,4.7,6.8,34.5,2765,188.5,79,66.0,99.2,89.6,13.8,"1 0 0 0"
"7/24/2021, 1:29:00 PM",39.0681436,-76.2980068,26.18110,656.5,-0.5,1.0,-5.0,56.9,0.0,46.7,7.8,188.5,131.6,2.6,131.6,2.6,4.9,34.5,2763,188.5,79,69.6,99.2,92.8,13.8,"1 0 0 0"
"7/24/2021, 1:24:00 PM",39.0604493,-76.3071856,23.98294,656.5,0,0.8,-5.3,54.8,0.0,41.8,7.2,213.2,158.4,4.4,158.4,4.4,6.7,34,2763,188.25,79,66.8,99.2,92.8,13.8,"1 0 0 0"
"7/24/2021, 1:19:00 PM",39.0528867,-76.3157100,18.86483,656.5,0.75,0.8,-5.5,49.1,0.0,35.7,7.2,230.1,-179.0,5.7,-179.0,5.7,6.8,34,2766,188.25,79,70.0,99.2,96.8,13.8,"1 0 0 0"
"7/24/2021, 1:14:00 PM",39.0447006,-76.3228388,17.09318,656.5,-0.5,0.8,-7.0,45.3,0.0,33.1,7.5,226.4,-178.9,4.5,-178.9,4.5,7.0,34,2765,188.25,79,69.6,99.2,99.2,13.8,"1 0 0 0"
"7/24/2021, 1:09:00 PM",39.0361842,-76.3304631,25.68898,656.5,0,1.0,-5.8,44.7,0.0,38.6,7.6,215.9,171.2,4.7,171.2,4.7,8.4,34.5,2764,188,80,69.6,99.2,99.2,13.8,"1 0 0 0"
"7/24/2021, 1:04:00 PM",39.0287649,-76.3382736,37.00787,656.5,-0.25,0.5,-8.3,45.4,0.0,39.0,7.1,212.2,166.8,5.6,166.8,5.6,7.5,34,2765,188,79,69.6,99.2,99.2,13.8,"1 0 0 0"
"7/24/2021, 12:59:00 PM",39.0215880,-76.3458853,49.70472,656.5,-1.5,0.8,-5.3,46.4,0.0,44.1,6.8,186.5,140.1,6.3,140.1,6.3,8.8,34,2765,188,79,71.2,99.2,99.2,13.8,"1 0 0 0"
"7/24/2021, 12:54:00 PM",39.0142945,-76.3532363,54.23228,656.5,-0.25,0.5,-7.5,43.8,0.0,37.4,6.5,206.9,163.1,6.7,163.1,6.7,9.4,34,2765,187.75,79,71.2,99.2,97.2,13.8,"1 0 0 0"
"7/24/2021, 12:49:00 PM",39.0070137,-76.3606125,61.12205,656.5,0.25,0.8,-6.5,42.1,0.0,40.1,6.7,202.5,160.4,3.4,160.4,3.4,8.9,34,2768,187.75,79,73.2,99.2,94.8,13.7,"1 0 0 0"
"7/24/2021, 12:44:00 PM",39.0003497,-76.3677265,59.15354,656.5,0,0.5,-5.0,48.9,0.0,41.2,5.0,210.8,161.9,7.0,161.9,7.0,8.8,34,1730,187.75,77,74.4,99.2,99.2,13.7,"1 0 0 0"
"7/24/2021, 12:19:00 PM",38.9859711,-76.3921875,32.08661,656.5,0,0.5,-6.3,54.5,0.0,50.7,5.1,195.0,140.5,7.0,140.5,7.0,10.0,34,2070,187.5,78,68.4,99.2,99.2,13.7,"1 0 0 0"
"7/24/2021, 12:14:00 PM",38.9820156,-76.3980998,29.13386,656.5,-0.25,0.3,-8.0,59.4,0.0,52.2,2.4,198.8,139.4,6.9,139.4,6.9,9.8,34,,,,69.6,99.2,99.2,,"1 0 0 0"
"7/24/2021, 12:09:00 PM",38.9791701,-76.4030621,28.64173,656.5,-0.75,0.3,-6.5,65.5,0.0,51.0,4.5,200.8,135.3,8.8,135.3,8.8,12.2,34,,,,69.6,99.2,99.2,,"1 0 0 0"
"7/24/2021, 12:04:00 PM",38.9767306,-76.4085458,28.14961,656.5,-0.25,0.3,-7.3,67.1,0.0,63.8,2.9,187.5,120.4,6.5,120.4,6.5,10.6,34,,,,75.6,99.2,99.2,,"1 0 0 0"
"7/24/2021, 11:59:00 AM",38.9747493,-76.4133474,23.72047,656.5,-0.75,0.0,-9.0,69.7,0.0,52.6,3.2,185.2,115.5,6.4,115.5,6.4,9.9,34,,,,72.4,99.2,99.2,,"1 0 0 0"
"7/24/2021, 11:54:00 AM",38.9725881,-76.4186136,15.84646,656.5,-1,0.3,-8.3,69.0,0.0,64.7,3.1,171.0,102.0,7.7,102.0,7.7,9.7,34,,,,70.0,99.2,99.2,,"1 0 0 0"
"7/24/2021, 11:49:00 AM",38.9704066,-76.4237801,14.79659,656.5,-0.5,1.0,-8.0,71.4,0.0,68.8,3.4,172.3,100.9,9.2,100.9,9.2,10.7,33.5,,,,72.8,99.2,99.6,,"1 0 0 0"
"7/24/2021, 11:44:00 AM",38.9679705,-76.4295881,20.89895,656.5,0,0.3,-9.0,71.6,0.0,55.2,3.8,154.1,82.5,6.7,82.5,6.7,10.0,33.5,,,,69.6,99.2,99.2,,"1 0 0 0"
"7/24/2021, 11:39:00 AM",38.9653647,-76.4356260,20.66929,656.5,-0.25,0.5,-7.8,74.0,0.0,61.1,4.0,179.3,105.3,6.4,105.3,6.4,10.5,33.5,,,,72.8,99.2,99.2,,"1 0 0 0"
"7/24/2021, 11:34:00 AM",38.9624991,-76.4425191,19.91470,656.5,0.25,-0.3,-6.5,73.7,0.0,65.3,4.3,156.2,82.5,8.5,82.5,8.5,11.0,33.5,,,,69.6,99.2,99.2,,"1 0 0 0"
"7/24/2021, 11:29:00 AM",38.9603425,-76.4483015,19.61942,656.5,-2.75,0.3,-7.3,82.6,0.0,67.1,2.3,166.0,83.4,8.7,83.4,8.7,15.5,33.5,,,,71.2,99.2,99.2,,"1 0 0 0"
"7/24/2021, 11:24:00 AM",38.9615088,-76.4548958,18.86483,656.5,-1.5,0.8,-5.3,112.3,0.0,102.3,7.3,156.7,44.4,15.2,44.4,15.2,16.8,33.5,2580,187.25,79,74.4,99.2,99.2,13.9,"1 0 0 0"
"7/24/2021, 11:19:00 AM",38.9660845,-76.4667345,15.35433,656.5,0,0.8,-6.8,122.1,0.0,112.1,7.9,172.4,50.3,11.5,50.3,11.5,14.6,34,2687,187.25,79,71.6,99.2,94.8,14.0,"1 0 0 0"
"7/24/2021, 11:14:00 AM",38.9677890,-76.4761046,10.00656,656.5,-0.75,0.5,-5.8,78.8,0.0,70.1,5.0,88.9,10.1,5.4,10.1,5.4,11.3,34,1743,187,68,71.2,99.2,99.2,13.9,"1 0 0 0"
"7/24/2021, 11:09:00 AM",38.9666930,-76.4796980,9.15354,656.5,-0.25,0.5,-6.3,248.4,0.0,0.0,0.1,211.3,,,-37.1,10.7,12.9,34,799,187,55,72.8,99.2,99.6,13.8,"1 0 0 0"
"7/24/2021, 11:04:00 AM",38.9667083,-76.4796993,9.21916,656.5,-0.25,0.0,-6.8,248.5,0.0,203.8,0.3,196.1,,,-52.4,6.8,9.6,34,801,187,42,69.6,99.2,99.2,14.0,"1 0 0 0"
"7/24/2021, 10:59:00 AM",38.9666930,-76.4797211,9.08793,656.5,-0.25,0.3,-6.0,245.1,0.0,267.6,0.3,215.6,,,-29.5,8.3,10.7,34,,,,76.4,99.2,99.6,,"1 0 0 0"
"7/24/2021, 10:54:00 AM",38.9667000,-76.4797110,9.08793,656.5,-0.25,0.3,-5.8,245.0,0.0,0.0,0.0,204.4,,,-40.6,7.5,10.0,33.5,,,,79.6,99.2,99.6,,"1 0 0 0"
"7/24/2021, 10:49:00 AM",38.9666737,-76.4796510,9.21916,656.5,-0.25,0.5,-5.8,244.8,0.0,0.0,0.2,225.7,,,-19.1,4.1,5.2,33.5,,,,79.6,99.2,99.6,,"1 0 0 0"
"7/24/2021, 10:44:00 AM",38.9666898,-76.4797190,9.15354,656.5,-0.25,0.0,-6.0,243.3,0.0,0.0,0.1,199.2,,,-44.1,3.7,8.5,33.5,,,,76.4,99.2,99.6,,"1 0 0 0"
"7/24/2021, 10:39:00 AM",38.9666733,-76.4796691,9.28478,656.5,-0.25,0.3,-6.0,243.2,0.0,0.0,0.1,239.0,,,-4.2,5.7,10.9,33.5,,,,79.6,99.2,99.6,,"1 0 0 0"
"7/24/2021, 10:34:00 AM",38.9666947,-76.4797096,9.28478,656.5,-0.25,0.0,-5.8,243.8,0.0,0.0,0.0,238.0,,,-5.8,3.8,9.0,33.5,,,,79.6,99.2,99.6,,"1 0 0 0"
"7/24/2021, 10:29:00 AM",38.9667051,-76.4796988,9.21916,656.5,-0.25,-0.3,-5.8,244.6,0.0,0.0,0.1,218.0,,,-26.6,6.3,10.5,33.5,,,,79.6,99.2,99.6,,"1 0 0 0"
"7/24/2021, 10:24:00 AM",38.9667038,-76.4797105,9.38320,656.5,0,0.3,-5.8,243.7,0.0,0.0,0.1,196.7,,,-47.0,6.7,8.1,33.5,,,,79.6,99.6,99.6,,"1 0 0 0"
"7/20/2021, 9:33:00 PM",38.9666932,-76.4796550,8.72703,656.6,0,0.3,-5.5,244.1,0.0,53.7,0.4,244.5,,,0.4,4.3,9.6,35.5,,,,79.6,70.8,99.2,,"1 0 0 0"
"7/20/2021, 9:28:00 PM",38.9667032,-76.4796941,8.89108,656.6,0,0.3,-5.5,244.3,0.0,0.0,0.2,227.4,,,-16.9,8.6,9.3,35.5,,,,79.6,83.6,99.2,,"1 0 0 0"
"7/20/2021, 9:23:00 PM",38.9667048,-76.4796788,8.79265,656.6,0,0.3,-5.5,245.6,0.0,0.0,0.1,221.3,,,-24.3,7.4,9.2,35.5,,,,79.6,83.6,99.2,,"1 0 0 0"
"7/20/2021, 9:18:00 PM",38.9666956,-76.4796884,8.79265,656.6,0.25,0.3,-6.0,244.3,0.0,0.0,0.0,234.7,,,-9.6,6.1,9.9,36,,,,79.6,83.6,99.2,,"1 0 0 0"
"7/20/2021, 9:13:00 PM",38.9667065,-76.4796873,8.66142,656.6,0,0.5,-5.3,245.0,0.0,0.0,0.1,224.9,,,-20.1,7.0,7.5,36,,,,79.6,83.6,99.2,,"1 0 0 0"
"7/20/2021, 9:08:00 PM",38.9667342,-76.4796721,8.85827,656.6,0,0.5,-5.5,243.8,0.0,0.0,0.2,214.5,,,-29.3,3.9,8.1,36,,,,79.6,87.6,99.2,,"1 0 0 0"
"7/20/2021, 9:03:00 PM",38.9667251,-76.4797155,8.66142,656.6,0,0.5,-5.5,244.7,0.0,0.0,0.1,219.1,,,-25.6,3.2,6.5,36,,,,79.6,83.6,99.2,,"1 0 0 0"
"7/20/2021, 8:58:00 PM",38.9667035,-76.4796980,8.79265,656.6,0,0.5,-5.8,244.3,0.0,0.0,0.1,216.4,,,-27.9,3.6,6.8,36,,,,79.6,91.6,99.2,,"1 0 0 0"
"7/20/2021, 8:53:00 PM",38.9666838,-76.4796630,8.66142,656.6,0,0.5,-5.5,244.5,0.0,0.0,0.1,200.5,,,-44.0,4.0,6.0,36,,,,79.6,83.6,99.2,,"1 0 0 0"
"7/20/2021, 8:48:00 PM",38.9666823,-76.4796965,8.72703,656.6,0,0.5,-5.5,245.0,0.0,83.8,0.4,209.9,,,-35.1,4.6,5.6,36,,,,79.6,83.6,99.2,,"1 0 0 0"
"7/20/2021, 8:43:00 PM",38.9666900,-76.4796686,8.66142,656.6,0,0.5,-5.5,245.3,0.0,185.6,0.3,222.0,,,-23.3,4.1,5.4,36,,,,79.6,83.6,99.2,,"1 0 0 0"
"7/20/2021, 8:38:00 PM",38.9667005,-76.4796976,8.66142,656.6,0,0.3,-6.3,244.3,0.0,0.0,0.2,208.8,,,-35.5,4.3,6.1,36,,,,79.6,83.6,99.2,,"1 0 0 0"
"7/20/2021, 8:33:00 PM",38.9667197,-76.4796955,8.72703,656.6,0,0.5,-5.8,245.4,0.0,201.2,0.4,213.7,,,-31.7,5.0,8.5,36,,,,79.6,83.6,99.2,,"1 0 0 0"
"7/20/2021, 8:28:00 PM",38.9666813,-76.4796656,8.72703,656.6,0.25,0.5,-5.8,244.3,0.0,0.0,0.1,208.7,,,-35.6,4.6,6.8,36,,,,79.6,83.6,99.2,,"1 0 0 0"
"7/20/2021, 8:23:00 PM",38.9666688,-76.4797440,8.66142,656.6,0,0.5,-5.0,244.8,0.0,0.0,0.1,209.7,,,-35.1,5.7,7.5,36,,,,79.6,83.6,99.2,,"1 0 0 0"
"7/20/2021, 8:18:00 PM",38.9667098,-76.4797013,8.59580,656.6,0.25,0.5,-5.0,245.3,0.0,0.0,0.1,199.6,,,-45.7,6.6,9.0,36,,,,79.6,83.6,99.2,,"1 0 0 0"
"7/20/2021, 8:13:00 PM",38.9666575,-76.4796643,8.79265,656.6,0.25,0.5,-5.3,244.5,0.0,0.0,0.2,200.4,,,-44.1,4.3,8.5,36,,,,79.6,83.6,99.2,,"1 0 0 0"
"7/20/2021, 8:08:00 PM",38.9666987,-76.4796766,8.72703,656.6,0.25,0.5,-5.0,244.7,0.0,0.0,0.2,216.2,,,-28.5,6.1,7.4,36,,,,79.6,83.6,99.2,,"1 0 0 0"
"7/20/2021, 8:03:00 PM",38.9666784,-76.4797696,8.59580,656.6,0.25,0.3,-5.5,245.0,0.0,0.0,0.1,199.2,,,-45.8,5.9,9.1,36,,,,79.6,83.6,99.2,,"1 0 0 0"
"7/20/2021, 7:58:00 PM",38.9667002,-76.4796565,8.59580,656.6,0.25,0.5,-5.8,245.0,0.0,320.8,0.4,203.4,,,-41.6,6.4,7.7,35.5,,,,79.6,83.6,99.2,,"1 0 0 0"
"7/20/2021, 7:53:00 PM",38.9666403,-76.4796460,8.72703,656.6,0,0.5,-6.0,244.5,0.0,0.0,0.1,206.7,,,-37.8,5.2,9.1,35.5,,,,79.6,83.6,99.2,,"1 0 0 0"
"7/20/2021, 7:48:00 PM",38.9666885,-76.4796855,8.85827,656.6,0.25,0.5,-5.8,245.3,0.0,302.9,0.3,211.8,,,-33.5,6.8,11.4,35.5,,,,79.6,83.6,99.2,,"1 0 0 0"
"7/20/2021, 7:43:00 PM",38.9667048,-76.4796836,8.53018,656.6,0.25,0.3,-6.8,248.7,0.0,0.0,0.1,210.3,,,-38.4,8.8,12.1,35.5,798,186.75,77,70.8,91.2,99.2,13.2,"1 0 0 0"
"7/20/2021, 7:38:00 PM",38.9672518,-76.4784443,10.20341,656.5,0.5,0.5,-5.5,234.0,3.5,227.1,3.9,202.4,-31.6,7.2,-21.4,10.3,14.3,35,1221,186.75,77,77.6,91.6,99.2,13.7,"1 0 0 0"
"7/20/2021, 7:33:00 PM",38.9671584,-76.4691328,10.92520,656.0,4.5,1.0,-6.0,282.7,6.7,265.9,7.1,205.0,-77.7,10.1,-48.3,13.3,16.5,34.5,2671,186.75,78,75.6,74.8,99.2,13.7,"1 0 0 0"
"7/20/2021, 7:28:00 PM",38.9663584,-76.4562240,18.99606,655.4,0.25,0.8,-3.8,292.3,7.3,283.1,7.6,206.0,-86.3,10.3,-52.3,13.0,19.2,34.5,2577,186.5,79,76.4,74.8,99.2,13.7,"1 0 0 0"
"7/20/2021, 7:23:00 PM",38.9664331,-76.4431046,17.45407,654.8,-0.25,0.8,-4.5,266.4,7.1,257.1,7.4,208.5,-57.9,10.6,-35.1,15.6,20.8,34.5,2578,186.5,79,78.8,74.8,99.2,13.7,"1 0 0 0"
"7/20/2021, 7:18:00 PM",38.9689210,-76.4304178,20.47244,654.2,0.5,0.8,-4.8,264.2,7.2,256.8,7.3,203.8,-60.4,11.8,-38.2,16.6,22.4,34.5,2579,186.5,79,78.0,78.0,99.2,13.7,"1 0 0 0"
"7/20/2021, 7:13:00 PM",38.9759340,-76.4221550,10.49869,653.7,0.25,1.3,-4.3,240.9,6.9,230.5,7.5,204.3,-36.6,13.0,-24.1,19.0,20.4,34.5,2579,186.25,79,79.6,72.8,99.2,13.7,"1 0 0 0"
"7/20/2021, 7:08:00 PM",38.9820725,-76.4112923,22.24409,653.1,-0.25,1.0,-3.8,258.9,7.2,252.4,7.8,204.3,-54.6,11.6,-34.3,16.8,18.5,34,2578,186.25,79,82.4,79.6,99.2,13.7,"1 0 0 0"
"7/20/2021, 7:03:00 PM",38.9879754,-76.4002870,25.68898,652.5,0.25,1.0,-4.0,256.3,7.2,245.8,7.0,201.8,-54.5,8.8,-30.3,14.2,17.8,34,2578,186.25,79,79.6,74.8,99.2,13.6,"1 0 0 0"
"7/20/2021, 6:58:00 PM",38.9929240,-76.3879210,34.67848,651.9,1,1.0,-6.3,250.9,7.0,237.8,8.0,206.5,-44.4,10.3,-26.7,16.1,18.5,34,2579,186,79,78.0,82.4,99.2,13.6,"1 0 0 0"
"7/20/2021, 6:53:00 PM",39.0028830,-76.3838410,31.10236,651.3,0.25,1.0,-6.3,199.0,7.1,188.5,7.7,213.3,14.3,8.6,7.9,15.6,17.2,34,2576,186,79,79.6,80.4,99.2,13.6,"1 0 0 0"
"7/20/2021, 6:48:00 PM",39.0135673,-76.3824835,25.68898,650.7,0.25,0.8,-6.0,198.9,7.0,185.4,7.9,208.6,9.7,9.4,5.6,16.3,18.8,34,2587,186,79,76.0,74.4,99.2,13.6,"1 0 0 0"
"7/20/2021, 6:43:00 PM",39.0239335,-76.3881266,11.18766,650.1,0.25,0.8,-8.0,159.6,7.1,146.9,7.8,206.4,46.8,9.4,27.0,15.2,17.8,34.5,2631,185.75,79,74.8,66.8,99.2,13.6,"1 0 0 0"
"7/20/2021, 6:38:00 PM",39.0328290,-76.3968448,14.07480,649.6,0.25,0.3,-5.0,149.0,7.0,133.1,8.3,180.9,31.9,7.2,16.1,13.6,16.0,34.5,2631,185.75,79,79.6,87.6,99.2,13.6,"1 0 0 0"
"7/20/2021, 6:33:00 PM",39.0404400,-76.4070993,14.30446,649.0,0,0.8,-7.0,156.6,7.1,142.7,7.9,200.0,43.4,5.7,19.1,11.9,16.2,34.5,2630,185.75,79,79.6,87.2,99.2,13.5,"1 0 0 0"
"7/20/2021, 6:28:00 PM",39.0478464,-76.4172032,15.61680,648.4,0,0.8,-7.3,141.3,6.9,126.6,7.9,182.3,41.0,6.9,20.5,12.9,15.5,35,2628,185.5,79,76.4,92.0,99.2,13.6,"1 0 0 0"
"7/20/2021, 6:23:00 PM",39.0538931,-76.4286436,12.46719,647.8,0,0.8,-6.5,138.5,6.9,123.1,8.0,179.0,40.5,6.4,19.5,12.6,17.3,34.5,2632,185.5,79,79.6,95.2,99.2,13.5,"1 0 0 0"
"7/20/2021, 6:18:00 PM",39.0605247,-76.4389696,16.53543,647.2,2.5,0.8,-8.8,156.6,7.0,130.9,6.5,184.9,28.3,10.2,16.9,16.7,19.0,34.5,2628,185.5,79,70.8,95.2,99.2,13.5,"1 0 0 0"
"7/20/2021, 6:13:00 PM",39.0694005,-76.4455720,13.77953,646.6,1,0.8,-6.5,159.9,6.6,140.9,7.3,181.0,21.1,11.0,13.2,17.4,18.0,34.5,2628,185.25,79,76.4,84.8,99.2,13.5,"1 0 0 0"
"7/20/2021, 6:08:00 PM",39.0778944,-76.4528832,12.04068,646.1,0.25,0.8,-5.5,160.3,6.5,148.7,7.6,178.8,18.5,9.1,10.8,15.4,16.4,35.5,2631,185.25,79,78.4,91.6,99.2,13.6,"1 0 0 0"
"7/20/2021, 6:03:00 PM",39.0798718,-76.4620598,10.07218,645.6,-1.25,0.5,-5.5,77.5,1.4,74.1,2.4,342.6,-94.9,2.3,-62.1,2.6,6.2,36,1131,185.25,73,79.6,99.2,99.2,13.5,"1 0 0 0"
"7/20/2021, 5:58:00 PM",39.0800640,-76.4620928,10.00656,645.6,0,0.0,-6.3,59.3,0.0,189.8,0.2,150.6,,,91.3,4.0,5.4,36,800,185,64,79.6,99.2,99.2,12.9,"1 0 0 0"
"7/20/2021, 5:53:00 PM",39.0800150,-76.4620940,9.94094,645.6,0,0.5,-6.0,348.7,0.0,264.2,0.4,82.3,,,93.6,2.2,8.6,36,,,,82.8,99.2,99.2,,"1 0 0 0"
"7/20/2021, 5:48:00 PM",39.0800640,-76.4622080,10.26903,645.6,0.25,0.5,-6.0,35.8,0.0,0.0,0.2,241.0,,,-154.8,4.1,5.3,36,,,,79.6,99.2,99.2,,"1 0 0 0"
"7/20/2021, 5:43:00 PM",39.0800252,-76.4622638,9.87533,645.6,0,0.3,-5.8,33.2,0.0,85.6,0.3,131.6,,,98.4,1.1,5.6,35.5,,,,79.6,99.2,99.2,,"1 0 0 0"
"7/20/2021, 5:38:00 PM",39.0800600,-76.4623161,10.13780,645.6,0,0.3,-5.5,48.8,0.0,0.0,0.2,142.0,,,93.2,3.9,5.2,35.5,,,,79.6,99.2,99.2,,"1 0 0 0"
"7/20/2021, 5:33:00 PM",39.0801081,-76.4623105,10.20341,645.6,0,0.5,-5.5,81.6,0.0,0.0,0.0,84.9,,,3.3,2.9,5.5,36,,,,79.6,99.2,99.2,,"1 0 0 0"
"7/20/2021, 5:28:00 PM",39.0800580,-76.4623140,10.13780,645.6,0,0.5,-5.0,48.5,0.0,165.3,0.2,89.4,,,40.9,2.1,5.2,35.5,,,,79.6,99.2,99.2,,"1 0 0 0"
"7/20/2021, 5:23:00 PM",39.0801458,-76.4623435,10.20341,645.6,0.5,0.3,-5.5,87.3,0.0,0.0,0.1,163.7,,,76.4,2.4,6.1,35.5,,,,79.6,99.2,99.2,,"1 0 0 0"
"7/20/2021, 5:18:00 PM",39.0801561,-76.4623923,10.43307,645.6,0,0.5,-5.8,88.4,0.0,303.1,0.3,116.4,,,28.0,4.1,7.0,35.5,,,,79.6,99.2,99.2,,"1 0 0 0"
"7/20/2021, 5:13:00 PM",39.0802395,-76.4623478,10.26903,645.6,0,0.5,-5.3,131.7,0.0,0.0,0.2,109.3,,,-22.4,1.7,7.7,35.5,,,,79.6,99.2,99.2,,"1 0 0 0"
"7/20/2021, 5:08:00 PM",39.0800970,-76.4623060,10.26903,645.6,0,0.5,-5.5,69.9,0.0,0.0,0.2,111.3,,,41.4,2.8,7.7,36,,,,79.6,99.2,99.2,,"1 0 0 0"
"7/20/2021, 5:03:00 PM",39.0801248,-76.4622848,10.36745,645.6,0,0.5,-6.0,99.8,0.0,0.0,0.1,135.2,,,35.4,3.5,8.4,35.5,,,,79.6,99.2,99.2,,"1 0 0 0"
"7/20/2021, 4:58:00 PM",39.0801913,-76.4623248,10.43307,645.6,0.5,0.5,-6.0,110.5,0.0,0.0,0.1,143.4,,,32.9,3.3,7.4,35.5,,,,79.6,99.2,99.2,,"1 0 0 0"
"7/20/2021, 4:53:00 PM",39.0801760,-76.4623658,10.43307,645.6,0,0.5,-6.0,108.0,0.0,223.8,0.4,147.6,,,39.6,5.7,7.8,35.5,,,,79.6,99.2,99.2,,"1 0 0 0"
"7/20/2021, 4:48:00 PM",39.0801727,-76.4623576,10.43307,645.6,0,0.5,-6.0,106.4,0.0,50.6,0.4,126.4,,,20.0,4.3,7.2,35.5,,,,79.6,99.2,99.2,,"1 0 0 0"
"7/20/2021, 4:43:00 PM",39.0801440,-76.4622912,10.43307,645.6,0,0.5,-6.0,83.7,0.0,317.5,0.2,181.4,,,97.7,4.4,8.2,35.5,,,,79.6,99.2,99.2,,"1 0 0 0"
"7/20/2021, 4:38:00 PM",39.0800858,-76.4623308,10.13780,645.6,-1.75,0.3,-6.0,67.0,0.0,294.5,0.5,307.2,,,-119.8,2.0,7.0,35.5,,,,79.6,99.2,99.2,,"1 0 0 0"
"7/20/2021, 4:33:00 PM",39.0801445,-76.4623650,10.49869,645.6,0.5,0.5,-6.3,97.2,0.0,53.9,0.5,235.4,,,138.2,5.0,9.2,35.5,,,,79.6,99.2,99.2,,"1 0 0 0"
"7/20/2021, 4:28:00 PM",39.0801178,-76.4623118,10.33465,645.6,-1.75,0.3,-5.8,83.8,0.0,0.0,0.2,37.4,,,-46.4,2.4,8.7,35.5,,,,79.6,99.2,99.2,,"1 0 0 0"
"7/20/2021, 4:23:00 PM",39.0801263,-76.4623496,10.13780,645.6,-1.75,0.5,-5.8,88.4,0.0,0.0,0.1,33.0,,,-55.4,0.1,8.7,35.5,,,,79.6,99.2,99.2,,"1 0 0 0"
"7/20/2021, 4:18:00 PM",39.0801768,-76.4623488,10.49869,645.6,-1.75,0.3,-6.0,124.0,0.0,0.0,0.1,164.1,,,40.1,0.0,6.0,35.5,,,,79.6,99.2,99.2,,"1 0 0 0"
"7/20/2021, 4:13:00 PM",39.0801117,-76.4623583,10.26903,645.6,-1.75,0.5,-6.0,72.0,0.0,0.0,0.2,149.1,,,77.1,6.1,7.7,35.5,,,,79.6,99.2,99.2,,"1 0 0 0"
"7/20/2021, 4:08:00 PM",39.0802225,-76.4623573,10.33465,645.6,-1.75,0.3,-6.0,121.7,0.0,116.7,0.3,170.1,,,48.4,6.3,8.9,35.5,,,,79.6,99.2,99.2,,"1 0 0 0"
"7/20/2021, 4:03:00 PM",39.0802227,-76.4623708,10.36745,645.6,-1.75,0.3,-5.8,122.5,0.0,0.0,0.0,131.7,,,9.2,4.8,10.0,35.5,,,,79.6,99.2,99.2,,"1 0 0 0"
"7/20/2021, 3:58:00 PM",39.0802558,-76.4623410,10.36745,645.6,-1.75,0.3,-4.8,132.4,0.0,0.0,0.2,151.1,,,18.7,8.4,11.5,35.5,,,,80.8,99.2,99.2,,"1 0 0 0"
"7/20/2021, 3:53:00 PM",39.0802408,-76.4623455,10.43307,645.6,-1.75,0.3,-6.3,131.6,0.0,7.3,0.3,130.8,,,-0.8,8.5,10.0,35.5,,,,79.6,99.2,99.2,,"1 0 0 0"
"7/20/2021, 3:48:00 PM",39.0802236,-76.4623636,10.43307,645.6,-1.75,0.3,-5.5,114.4,0.0,0.0,0.2,134.7,,,20.3,7.7,10.3,35,,,,79.6,99.2,99.2,,"1 0 0 0"
"7/20/2021, 3:43:00 PM",39.0802240,-76.4623481,10.20341,645.6,0.25,0.3,-6.0,138.9,0.0,0.0,0.2,131.6,,,-7.3,8.6,10.0,35,,,,82.8,99.2,99.2,,"1 0 0 0"
"7/20/2021, 3:38:00 PM",39.0802304,-76.4622848,10.33465,645.6,0,0.3,-5.5,136.5,0.0,208.2,0.3,123.7,,,-12.8,7.6,11.0,35,,,,79.6,99.2,99.2,,"1 0 0 0"
"7/20/2021, 3:33:00 PM",39.0801663,-76.4623716,10.43307,645.6,0.25,0.5,-6.0,105.7,0.0,180.1,0.2,133.0,,,27.3,9.2,10.4,35,,,,79.6,99.2,99.2,,"1 0 0 0"
"7/20/2021, 3:28:00 PM",39.0802073,-76.4623583,10.20341,645.6,0.25,0.5,-5.8,115.9,0.0,0.0,0.2,133.2,,,17.3,8.4,12.7,35,,,,79.6,99.2,99.2,,"1 0 0 0"
"7/20/2021, 3:23:00 PM",39.0806843,-76.4623961,10.26903,645.5,-19.75,0.3,-5.0,201.1,3.7,203.7,3.7,140.3,-60.8,9.3,-44.7,11.6,12.2,35,892,185,79,81.2,99.2,99.2,13.7,"1 0 0 0"
"7/20/2021, 3:18:00 PM",39.0775778,-76.4517498,12.46719,645.0,0,0.8,-5.5,342.2,7.3,331.8,8.0,141.5,159.3,8.8,106.1,3.2,5.9,35,2705,185,79,79.6,99.2,99.2,13.8,"1 0 0 0"
"7/20/2021, 3:13:00 PM",39.0676002,-76.4452904,14.00919,644.3,0,0.8,-6.0,342.6,7.4,332.9,8.6,124.5,141.9,7.8,75.2,5.0,6.6,34.5,2703,184.75,79,79.6,99.2,99.2,13.8,"1 0 0 0"
"7/20/2021, 3:08:00 PM",39.0585078,-76.4371210,19.06168,643.7,0.25,0.8,-5.5,327.6,7.3,320.2,7.9,162.6,-165.0,6.2,-50.4,2.1,6.4,35,2691,184.75,79,81.2,99.2,99.2,13.8,"1 0 0 0"
"7/20/2021, 3:03:00 PM",39.0526022,-76.4254713,12.10630,643.2,0.25,0.3,-5.5,313.1,5.8,302.7,6.4,141.2,-171.9,6.2,-114.5,1.0,5.3,35,2083,184.75,78,84.8,99.2,99.2,13.8,"1 0 0 0"
"7/20/2021, 2:58:00 PM",39.0459243,-76.4137695,17.25722,642.6,-0.25,0.8,-5.3,317.4,7.2,308.2,8.3,160.7,-156.7,5.4,-43.9,3.1,5.1,35,2690,184.5,79,79.6,99.2,99.2,13.9,"1 0 0 0"
"7/20/2021, 2:53:00 PM",39.0388282,-76.4020323,17.38845,642.0,0.25,0.8,-5.0,317.1,7.2,305.5,8.1,164.6,-152.5,5.3,-44.9,3.5,5.7,35,2690,184.5,79,82.8,99.2,99.2,13.8,"1 0 0 0"
"7/20/2021, 2:48:00 PM",39.0321504,-76.3921856,17.25722,641.4,1.25,0.3,-5.3,22.7,0.0,345.7,1.5,167.3,144.6,5.0,144.6,5.0,5.9,35,798,184.5,76,88.0,99.2,99.2,13.6,"1 0 0 0"
"7/20/2021, 2:43:00 PM",39.0288855,-76.3899966,15.48556,641.3,-2.25,1.0,-3.0,326.3,6.6,321.9,7.8,121.5,155.2,3.2,19.5,4.0,9.8,35,2776,184.25,80,68.0,99.2,99.2,13.8,"1 0 0 0"
"7/20/2021, 2:38:00 PM",39.0203158,-76.3809291,34.54724,640.7,13.25,0.5,-9.5,218.2,6.4,209.0,7.5,166.6,-51.6,4.5,-20.9,9.8,11.4,35,2776,184.25,80,72.8,99.2,99.2,13.9,"1 0 0 0"
"7/20/2021, 2:33:00 PM",39.0161330,-76.3820071,31.59449,640.5,1,-0.3,-6.3,17.4,5.7,7.5,6.9,143.0,125.6,3.4,36.6,4.6,10.0,35,797,184.25,81,89.6,99.2,99.2,13.8,"1 0 0 0"
"7/20/2021, 2:28:00 PM",39.0086912,-76.3839424,29.13386,640.0,-4.75,1.0,-4.3,50.0,6.8,44.3,7.8,132.9,82.9,4.3,30.2,8.5,9.7,35,2782,184,80,90.0,99.2,99.2,13.8,"1 0 0 0"
"7/20/2021, 2:23:00 PM",39.0032067,-76.3846986,30.11811,639.7,-1.25,0.3,-6.5,45.8,0.0,15.9,0.8,160.2,114.4,3.4,114.4,3.4,3.9,35,802,184,77,82.8,99.2,99.2,13.6,"1 0 0 0"
"7/20/2021, 2:18:00 PM",39.0021082,-76.3848235,30.61024,639.7,-1.25,0.5,-5.3,36.0,0.0,316.1,0.7,165.8,129.8,3.0,129.8,3.0,5.0,35,803,184,76,90.0,99.2,99.2,13.6,"1 0 0 0"
"7/20/2021, 2:13:00 PM",39.0008640,-76.3847616,31.23360,639.7,-1.25,0.5,-5.8,351.6,0.0,351.9,0.9,107.2,115.6,2.4,115.6,2.4,3.6,34.5,801,183.75,76,90.0,99.2,99.2,13.5,"1 0 0 0"
"7/20/2021, 2:08:00 PM",38.9986903,-76.3834456,36.02362,639.7,-1.25,0.3,-5.8,350.5,3.2,342.5,4.1,103.8,113.3,3.1,54.4,3.5,8.9,34,799,183.75,79,86.8,99.2,99.2,13.6,"1 0 0 0"
"7/20/2021, 2:03:00 PM",38.9900608,-76.3876544,33.95669,639.1,-0.25,0.5,-5.8,60.3,5.8,47.6,6.3,132.7,72.4,2.4,19.6,6.9,9.7,34,2109,183.75,77,86.4,99.2,99.2,13.8,"1 0 0 0"
"7/20/2021, 1:58:00 PM",38.9847990,-76.3978280,27.65748,638.6,1,0.8,-6.5,74.4,7.0,57.9,7.3,144.5,70.1,2.9,19.0,8.5,13.1,35,2571,183.5,79,84.8,99.2,99.2,13.7,"1 0 0 0"
"7/20/2021, 1:53:00 PM",38.9799136,-76.4091863,27.16535,638.0,0,0.5,-5.5,75.1,7.1,64.1,7.5,134.0,58.9,4.2,21.2,9.9,12.1,34,2572,183.5,79,87.2,99.2,99.2,13.7,"1 0 0 0"
"7/20/2021, 1:48:00 PM",38.9755680,-76.4217984,11.84383,637.4,0,0.8,-6.0,77.4,6.9,65.6,7.9,113.7,36.3,4.9,15.1,11.3,13.2,34,2570,183.5,79,81.2,99.2,99.2,13.7,"1 0 0 0"
"7/20/2021, 1:43:00 PM",38.9709287,-76.4342165,19.12730,636.9,0,0.8,-6.0,81.7,6.8,69.8,7.2,114.4,32.7,5.6,14.7,11.9,13.2,34,2572,183.25,79,86.4,99.2,99.2,13.7,"1 0 0 0"
"7/20/2021, 1:38:00 PM",38.9663614,-76.4462416,17.25722,636.3,0.5,0.8,-5.8,74.6,7.0,61.3,7.6,120.9,46.3,6.4,22.2,12.3,13.2,34,2571,183.25,79,88.0,99.2,99.2,13.7,"1 0 0 0"
"7/20/2021, 1:33:00 PM",38.9641092,-76.4583693,19.68504,635.7,1,0.5,-7.3,138.5,6.7,123.1,7.0,136.0,-2.5,5.2,-1.1,11.9,14.1,34,2574,183.25,79,86.4,99.2,99.2,13.7,"1 0 0 0"
"7/20/2021, 1:28:00 PM",38.9668843,-76.4699705,13.81234,635.2,0,0.5,-5.0,133.3,5.9,120.9,6.5,130.2,-3.1,6.9,-1.7,12.9,13.5,34.5,2308,183,78,88.0,99.2,99.2,13.7,"1 0 0 0"
"7/20/2021, 1:23:00 PM",38.9669267,-76.4787233,10.26903,634.8,0.25,0.5,-7.0,62.8,2.7,54.7,3.6,125.1,62.3,6.8,45.6,8.4,10.2,34.5,1185,183,56,90.0,99.2,99.2,13.6,"1 0 0 0"
"7/20/2021, 1:18:00 PM",38.9667082,-76.4797085,9.38320,634.7,-0.75,0.3,-6.0,242.7,0.0,164.2,0.2,117.8,,,-124.9,5.7,8.7,34.5,798,183,32,90.0,99.2,99.2,13.1,"1 0 0 0"
"7/20/2021, 1:13:00 PM",38.9667108,-76.4796956,9.51444,634.7,-0.75,0.3,-5.5,241.4,0.0,345.4,0.3,129.8,,,-111.6,6.7,9.1,34.5,,,,90.0,99.2,99.2,,"1 0 0 0"
"7/20/2021, 1:08:00 PM",38.9667010,-76.4796701,9.38320,634.7,-0.75,0.3,-5.8,241.5,0.0,0.0,0.1,118.5,,,-123.0,6.3,8.9,34.5,,,,90.0,99.2,99.2,,"1 0 0 0"
"7/20/2021, 1:03:00 PM",38.9666784,-76.4797184,9.44882,634.7,-0.75,0.3,-5.5,241.3,0.0,286.6,0.3,115.3,,,-126.0,7.1,8.3,34.5,,,,90.0,99.2,99.2,,"1 0 0 0"
"7/20/2021, 12:58:00 PM",38.9666784,-76.4797440,9.38320,634.7,0,0.3,-5.8,241.4,0.0,0.0,0.2,106.9,,,-134.5,7.9,8.3,34.5,,,,90.0,99.2,99.2,,"1 0 0 0"
"7/20/2021, 12:53:00 PM",38.9666941,-76.4796628,9.58005,634.7,0,0.3,-5.3,241.4,0.0,0.0,0.2,108.2,,,-133.2,4.9,7.3,34.5,,,,90.0,99.2,99.2,,"1 0 0 0"
"7/20/2021, 12:48:00 PM",38.9666877,-76.4796656,9.51444,634.7,0,0.3,-5.3,241.4,0.0,0.0,0.2,116.9,,,-124.5,4.8,8.0,34.5,,,,90.0,99.2,99.2,,"1 0 0 0"
"7/20/2021, 12:43:00 PM",38.9666957,-76.4796911,9.38320,634.7,0,0.3,-5.3,241.4,0.0,0.0,0.2,116.0,,,-125.4,6.7,8.4,34,,,,90.0,99.2,99.2,,"1 0 0 0"
"7/20/2021, 12:38:00 PM",38.9667015,-76.4796880,9.44882,634.7,0,0.3,-5.5,241.5,0.0,0.0,0.1,129.2,,,-112.3,5.2,8.4,34,,,,90.0,99.2,99.2,,"1 0 0 0"
"7/20/2021, 12:33:00 PM",38.9667158,-76.4796786,9.35039,634.7,0,0.0,-5.5,241.4,0.0,206.1,0.5,94.6,,,-146.8,5.1,7.5,34,,,,90.0,99.2,99.2,,"1 0 0 0"
"7/20/2021, 12:28:00 PM",38.9666993,-76.4797018,9.58005,634.7,0,0.3,-5.5,241.3,0.0,0.0,0.0,106.4,,,-134.9,5.4,7.7,34,,,,90.0,99.2,99.2,,"1 0 0 0"
"7/20/2021, 12:23:00 PM",38.9666936,-76.4796700,9.58005,634.7,0,0.3,-5.8,241.5,0.0,0.0,0.1,106.5,,,-135.0,6.0,8.0,34,,,,90.0,99.2,99.2,,"1 0 0 0"
"7/20/2021, 12:18:00 PM",38.9667010,-76.4796993,9.21916,634.7,0,0.3,-5.8,241.7,0.0,0.0,0.1,115.6,,,-126.1,4.4,9.1,34,,,,90.0,99.2,99.2,,"1 0 0 0"
"7/20/2021, 12:13:00 PM",38.9667310,-76.4796746,9.38320,634.7,0,0.3,-5.3,241.4,0.0,0.0,0.1,132.4,,,-109.0,5.9,8.2,34,,,,90.0,99.2,99.2,,"1 0 0 0"
"7/20/2021, 12:08:00 PM",38.9667073,-76.4796918,9.21916,634.7,0,0.3,-5.5,241.1,0.0,0.0,0.1,109.2,,,-131.9,4.8,7.6,34,,,,90.0,99.2,99.2,,"1 0 0 0"
"7/20/2021, 12:03:00 PM",38.9666993,-76.4796831,9.21916,634.7,0,0.3,-5.5,241.6,0.0,41.3,0.3,119.1,,,-122.5,6.6,8.0,34,,,,90.0,99.2,99.2,,"1 0 0 0"
"7/20/2021, 11:58:00 AM",38.9667053,-76.4796880,9.28478,634.7,0,0.3,-5.8,241.1,0.0,0.0,0.1,95.4,,,-145.7,5.1,7.4,34,,,,90.0,99.2,99.2,,"1 0 0 0"
"7/20/2021, 11:53:00 AM",38.9666720,-76.4797504,9.51444,634.7,-0.25,0.3,-5.8,241.0,0.0,0.0,0.2,102.2,,,-138.8,6.6,7.8,34,,,,90.0,99.2,99.2,,"1 0 0 0"
"7/20/2021, 11:48:00 AM",38.9666876,-76.4796576,9.38320,634.7,-0.25,0.3,-5.8,241.2,0.0,0.0,0.0,109.9,,,-131.3,5.6,7.7,34,,,,90.0,99.2,99.2,,"1 0 0 0"
"7/20/2021, 11:43:00 AM",38.9666928,-76.4796708,9.21916,634.7,0,0.0,-5.8,241.0,0.0,0.0,0.1,96.1,,,-144.9,4.2,7.9,34,,,,90.0,99.2,99.2,,"1 0 0 0"
"7/20/2021, 11:38:00 AM",38.9667028,-76.4796960,9.15354,634.7,0,0.0,-5.8,241.3,0.0,286.2,0.3,119.0,,,-122.3,4.6,7.2,34,,,,90.0,99.2,99.2,,"1 0 0 0"
"7/20/2021, 11:33:00 AM",38.9667048,-76.4797038,9.28478,634.7,0,0.3,-5.5,241.2,0.0,0.0,0.1,102.3,,,-138.9,5.7,6.7,34.5,,,,90.0,99.2,99.2,,"1 0 0 0"
"7/20/2021, 11:28:00 AM",38.9667067,-76.4796801,9.38320,634.7,0,0.3,-5.5,241.0,0.0,197.2,0.4,118.9,,,-122.1,3.5,5.3,34.5,,,,90.0,99.6,99.6,,"1 0 0 0"
"7/19/2021, 1:18:00 PM",38.9666980,-76.4796736,9.08793,635.0,0,0.3,-5.5,242.1,0.0,0.0,0.1,201.4,,,-40.2,7.1,10.4,34.5,,,,90.0,70.8,99.2,,"1 0 0 0"
"7/19/2021, 1:13:00 PM",38.9666936,-76.4796790,9.21916,635.0,-0.25,0.3,-6.0,242.3,0.0,0.0,0.0,190.0,,,-52.3,6.3,9.0,34.5,,,,90.0,70.8,99.2,,"1 0 0 0"
"7/19/2021, 1:08:00 PM",38.9666946,-76.4796808,9.02231,635.0,-0.25,0.3,-5.3,242.5,0.0,111.9,0.4,209.0,,,-31.6,6.2,10.1,34.5,798,183,77,90.0,70.8,99.2,13.3,"1 0 0 0"
"7/19/2021, 1:03:00 PM",38.9666827,-76.4796853,9.02231,635.0,-1.5,0.3,-5.0,246.3,0.0,62.5,0.4,213.7,,,-30.6,5.9,10.2,34.5,798,182.75,77,90.0,70.8,99.2,13.3,"1 0 0 0"
"7/19/2021, 12:58:00 PM",38.9678158,-76.4787048,9.21916,634.9,-4.75,0.3,-5.8,118.6,1.0,99.4,1.9,223.0,104.4,7.9,90.6,7.6,10.0,34.5,882,182.75,69,90.0,70.8,99.2,13.3,"1 0 0 0"
"7/19/2021, 12:53:00 PM",38.9678338,-76.4790586,8.66142,634.9,0,0.3,-5.5,244.3,0.0,212.2,0.3,178.2,,,-60.5,2.7,9.1,34.5,,,,90.0,70.8,99.2,,"1 0 0 0"
"7/19/2021, 12:48:00 PM",38.9677960,-76.4790298,8.89108,634.9,0,0.3,-5.3,243.7,0.0,0.0,0.0,243.8,,,0.1,7.4,8.4,34.5,,,,90.0,70.8,99.2,,"1 0 0 0"
"7/19/2021, 12:43:00 PM",38.9678201,-76.4790503,8.53018,634.9,0,0.3,-5.0,244.5,0.0,0.0,0.1,215.4,,,-28.4,3.4,7.4,34.5,,,,90.0,70.8,99.2,,"1 0 0 0"
"7/19/2021, 12:38:00 PM",38.9677728,-76.4791040,8.46457,634.9,0,0.3,-5.5,244.5,0.0,0.0,0.1,222.2,,,-20.8,1.4,7.9,34.5,,,,90.0,70.8,99.2,,"1 0 0 0"
"7/19/2021, 12:33:00 PM",38.9677848,-76.4790438,8.59580,634.9,0,0.3,-5.5,243.1,0.0,0.0,0.1,232.6,,,-10.4,6.2,7.0,34.5,,,,90.0,70.8,99.2,,"1 0 0 0"
"7/19/2021, 12:28:00 PM",38.9678210,-76.4789913,8.59580,634.9,-1,-0.5,-5.3,243.2,0.0,226.1,0.9,241.3,-1.9,5.5,-1.7,6.4,9.2,34.5,2151,182.5,76,90.0,70.8,99.2,13.7,"1 0 0 0"
"7/19/2021, 12:23:00 PM",38.9666918,-76.4796866,9.08793,634.7,0,0.3,-5.3,242.1,0.0,0.0,0.1,225.9,,,-16.0,7.1,8.9,34,786,182.5,70,90.0,70.8,99.2,13.7,"1 0 0 0"
"7/19/2021, 12:18:00 PM",38.9667311,-76.4796676,9.08793,634.7,0,0.3,-5.3,241.7,0.0,358.6,0.4,213.0,,,-26.5,4.7,7.2,34.5,801,182.5,67,90.0,70.8,99.2,13.8,"1 0 0 0"
"7/19/2021, 12:13:00 PM",38.9666837,-76.4796785,9.28478,634.7,0,0.3,-5.5,237.3,0.0,0.0,0.1,315.4,,,77.1,5.3,8.2,34.5,802,182.25,63,90.0,70.8,99.2,13.8,"1 0 0 0"
"7/19/2021, 12:08:00 PM",38.9666857,-76.4796710,9.02231,634.7,0,0.3,-5.0,241.8,0.0,69.6,0.4,248.6,,,6.2,4.2,7.9,34.5,799,182.25,57,90.0,70.8,99.6,13.9,"1 0 0 0"
"7/19/2021, 12:03:00 PM",38.9666848,-76.4797312,8.95669,634.7,0,0.3,-5.0,254.0,0.0,,0.0,234.2,,,-19.8,6.8,7.8,34.5,800,182.25,46,90.0,71.2,99.6,13.9,"1 0 0 0"
"7/18/2021, 7:25:00 PM",38.9666739,-76.4797053,8.23491,634.7,0,0.3,-5.5,241.0,0.0,0.0,0.1,313.7,,,72.7,5.8,7.9,35.5,,,,90.0,83.6,99.2,,"1 0 0 0"
"7/18/2021, 7:20:00 PM",38.9666833,-76.4796928,8.23491,634.7,0,0.3,-5.5,241.2,0.0,0.0,0.1,286.7,,,45.5,5.9,11.4,35.5,,,,90.0,91.6,99.2,,"1 0 0 0"
"7/18/2021, 7:15:00 PM",38.9666895,-76.4796903,8.16929,634.7,0,0.3,-5.5,241.0,0.0,0.0,0.2,330.7,,,89.7,8.0,11.4,35.5,,,,90.0,99.2,99.2,,"1 0 0 0"
"7/18/2021, 7:10:00 PM",38.9666845,-76.4797090,8.36614,634.7,0,0.3,-5.8,241.0,0.0,0.0,0.1,319.4,,,78.4,8.5,11.8,35.5,,,,90.0,99.2,99.2,,"1 0 0 0"
"7/18/2021, 7:05:00 PM",38.9666910,-76.4796823,8.23491,634.7,0,0.3,-6.0,241.0,0.0,0.0,0.1,316.4,,,75.4,9.4,13.2,35.5,,,,90.0,99.2,99.2,,"1 0 0 0"
"7/18/2021, 7:00:00 PM",38.9666888,-76.4797085,8.10367,634.7,0,0.3,-5.3,240.9,0.0,340.4,0.3,315.7,,,74.8,4.7,11.3,35.5,,,,90.0,99.2,99.2,,"1 0 0 0"
"7/18/2021, 6:55:00 PM",38.9666826,-76.4796901,8.10367,634.7,0,0.3,-5.3,241.0,0.0,156.3,0.2,308.6,,,67.6,6.2,11.9,35.5,,,,90.0,99.2,99.2,,"1 0 0 0"
"7/18/2021, 6:50:00 PM",38.9667015,-76.4796938,8.16929,634.7,0,0.3,-5.3,241.1,0.0,0.0,0.0,295.9,,,54.8,5.6,9.2,35.5,,,,90.0,99.2,99.2,,"1 0 0 0"
"7/18/2021, 6:45:00 PM",38.9666853,-76.4796785,8.36614,634.7,0,0.3,-5.0,241.6,0.0,0.0,0.1,0.7,,,119.1,4.3,11.3,35.5,,,,90.0,99.2,99.2,,"1 0 0 0"
"7/18/2021, 6:40:00 PM",38.9666875,-76.4797020,8.23491,634.7,0,0.3,-5.3,240.9,0.0,0.0,0.0,306.0,,,65.1,9.4,15.1,35.5,,,,90.0,99.2,99.2,,"1 0 0 0"
"7/18/2021, 6:35:00 PM",38.9666752,-76.4797568,8.36614,634.7,0,0.3,-5.3,241.0,0.0,112.5,0.3,308.8,,,67.8,5.0,10.9,35.5,,,,90.0,99.2,99.2,,"1 0 0 0"
"7/18/2021, 6:30:00 PM",38.9666975,-76.4797025,8.10367,634.7,-0.25,0.3,-5.5,240.9,0.0,89.3,0.2,297.9,,,57.0,6.8,11.7,35.5,,,,90.0,99.2,99.2,,"1 0 0 0"
"7/18/2021, 6:25:00 PM",38.9667040,-76.4797376,8.16929,634.7,-0.25,0.3,-5.8,240.9,0.0,0.0,0.2,304.7,,,63.8,10.7,14.7,35.5,,,,90.0,99.2,99.2,,"1 0 0 0"
"7/18/2021, 6:20:00 PM",38.9666923,-76.4796750,8.10367,634.7,-0.25,0.3,-5.5,241.4,0.0,0.0,0.2,296.2,,,54.8,6.6,14.8,35.5,,,,90.0,99.2,99.2,,"1 0 0 0"
"7/18/2021, 6:15:00 PM",38.9666835,-76.4796728,8.16929,634.7,-0.25,0.3,-5.8,241.0,0.0,126.2,0.5,304.2,,,63.2,7.7,14.9,35.5,,,,90.0,99.2,99.2,,"1 0 0 0"
"7/18/2021, 6:10:00 PM",38.9666925,-76.4797028,8.23491,634.7,-0.25,0.3,-5.5,240.8,0.0,0.0,0.1,286.0,,,45.2,4.3,14.9,35.5,,,,90.0,99.2,99.2,,"1 0 0 0"
"7/18/2021, 6:05:00 PM",38.9666858,-76.4796806,8.23491,634.7,-0.25,0.3,-5.3,241.6,0.0,217.3,0.2,7.3,,,125.7,7.0,12.3,35.5,,,,90.0,99.2,99.2,,"1 0 0 0"
"7/18/2021, 6:00:00 PM",38.9666656,-76.4797376,8.30052,634.7,0,0.5,-6.0,240.7,0.0,0.0,0.0,328.8,,,88.1,7.7,11.6,35.5,,,,90.0,99.2,99.2,,"1 0 0 0"
"7/18/2021, 5:55:00 PM",38.9666968,-76.4797128,8.36614,634.7,0,0.5,-5.8,240.9,0.0,148.0,0.0,300.8,,,59.9,6.2,13.2,35.5,,,,90.0,99.2,99.2,,"1 0 0 0"
"7/18/2021, 5:50:00 PM",38.9666900,-76.4796860,8.36614,634.7,0,0.5,-5.3,240.9,0.0,202.3,0.3,327.1,,,86.2,5.8,12.7,35.5,,,,90.0,99.2,99.2,,"1 0 0 0"
"7/18/2021, 5:45:00 PM",38.9666656,-76.4797440,8.23491,634.7,0,0.3,-5.8,240.8,0.0,119.9,0.0,333.1,,,92.3,8.5,12.9,35.5,,,,90.0,99.2,99.2,,"1 0 0 0"
"7/18/2021, 5:40:00 PM",38.9666688,-76.4797312,8.39895,634.7,0,0.3,-5.5,240.7,0.0,0.0,0.2,297.0,,,56.3,4.9,10.9,35.5,,,,90.0,99.2,99.2,,"1 0 0 0"
"7/18/2021, 5:35:00 PM",38.9666950,-76.4796910,8.16929,634.7,0,0.5,-5.0,240.6,0.0,0.0,0.1,323.3,,,82.7,7.3,14.7,35.5,,,,90.0,99.2,99.2,,"1 0 0 0"
"7/18/2021, 5:30:00 PM",38.9667090,-76.4797061,8.23491,634.7,0,0.3,-5.5,240.9,0.0,59.6,0.5,331.0,,,90.1,11.4,15.2,35.5,,,,90.0,99.2,99.2,,"1 0 0 0"
"7/18/2021, 5:25:00 PM",38.9667109,-76.4796786,8.30052,634.7,0,0.3,-4.8,241.0,0.0,0.0,0.2,1.7,,,120.7,10.0,19.0,35.5,,,,90.0,99.2,99.2,,"1 0 0 0"
"7/18/2021, 5:20:00 PM",38.9667058,-76.4796795,8.23491,634.7,0,0.5,-5.8,240.6,0.0,0.0,0.1,292.4,,,51.8,8.9,18.8,35,,,,90.0,99.2,99.2,,"1 0 0 0"
"7/18/2021, 5:15:00 PM",38.9666962,-76.4796870,8.23491,634.7,24,0.5,-6.3,241.1,0.0,0.0,0.2,314.5,,,73.4,12.8,20.5,35,2299,182,76,90.0,99.2,99.2,13.4,"1 0 0 0"
"7/18/2021, 5:10:00 PM",38.9666923,-76.4797319,8.30052,634.7,23.5,0.3,-5.5,238.8,0.0,267.6,0.2,306.2,,,67.4,13.6,18.5,35,798,182,76,90.0,99.2,99.2,13.1,"1 0 0 0"
"7/18/2021, 5:05:00 PM",38.9664717,-76.4799103,7.97244,634.7,-1.25,0.3,-5.8,189.5,0.0,19.1,1.1,335.1,145.6,12.7,145.6,12.7,20.8,35,802,182,78,90.0,99.2,99.2,13.2,"1 0 0 0"
"7/18/2021, 5:00:00 PM",38.9686860,-76.4739710,9.44882,634.4,-2,0.5,-6.0,284.8,5.6,275.8,6.0,322.8,38.0,14.8,27.9,19.5,27.5,34.5,2222,181.75,78,90.0,99.2,99.2,13.6,"1 0 0 0"
"7/18/2021, 4:55:00 PM",38.9658023,-76.4632941,11.67979,633.9,-0.25,0.8,-6.8,293.4,6.9,285.1,7.2,323.3,29.9,20.0,22.4,26.2,31.4,34,2685,181.75,79,83.6,99.2,99.2,13.6,"1 0 0 0"
"7/18/2021, 4:50:00 PM",38.9645400,-76.4506683,14.63255,633.4,0,0.5,-7.5,290.6,6.9,280.0,6.9,330.9,40.3,15.1,28.0,20.9,30.7,34,2686,181.75,80,85.6,99.2,99.2,13.6,"1 0 0 0"
"7/18/2021, 4:45:00 PM",38.9712746,-76.4417575,13.64829,632.8,0,0.5,-7.3,224.5,7.0,213.1,7.6,307.1,82.6,16.6,61.1,18.9,24.9,34,2686,181.5,79,86.4,99.2,99.2,13.6,"1 0 0 0"
"7/18/2021, 4:40:00 PM",38.9816075,-76.4378228,15.25591,632.2,-0.25,0.8,-5.5,190.6,7.1,180.1,7.6,301.0,110.4,17.9,87.1,16.8,17.1,34.5,2690,181.5,79,86.4,99.2,99.2,13.6,"1 0 0 0"
"7/18/2021, 4:35:00 PM",38.9918529,-76.4406388,10.33465,631.6,0,0.3,-6.3,177.5,4.6,165.7,5.5,288.6,111.1,16.5,94.8,15.4,18.3,35,1823,181.5,78,88.0,99.2,99.2,13.5,"1 0 0 0"
"7/18/2021, 4:30:00 PM",38.9931830,-76.4415145,7.97244,631.6,-0.75,0.3,-5.5,314.7,0.0,5.6,0.6,295.8,-18.9,11.3,-18.9,11.3,14.2,35,1855,181.25,70,93.6,99.2,99.2,13.6,"1 0 0 0"
"7/18/2021, 4:25:00 PM",38.9930578,-76.4414366,8.30052,631.6,2.5,0.3,-4.8,326.4,0.0,197.5,0.5,294.4,,,-32.0,9.9,16.1,35,,,,91.6,99.2,99.2,,"1 0 0 0"
"7/18/2021, 4:20:00 PM",38.9931395,-76.4413673,8.16929,631.6,-0.75,0.3,-5.5,294.4,0.0,217.1,0.3,298.6,,,4.2,14.8,19.6,35,,,,94.4,99.2,99.2,,"1 0 0 0"
"7/18/2021, 4:15:00 PM",38.9931485,-76.4413764,8.23491,631.6,-0.75,0.3,-7.0,280.9,0.0,0.0,0.2,314.8,,,33.9,17.1,17.8,35,,,,91.6,99.2,99.2,,"1 0 0 0"
"7/18/2021, 4:10:00 PM",38.9931510,-76.4413793,8.23491,631.6,-0.75,0.3,-6.3,274.2,0.0,207.1,0.3,319.1,,,44.9,8.2,17.5,35,,,,91.6,99.2,99.2,,"1 0 0 0"
"7/18/2021, 4:05:00 PM",38.9931136,-76.4414656,8.39895,631.6,-0.75,0.3,-4.8,294.3,0.0,0.0,0.1,310.5,,,16.2,9.8,16.4,35,,,,92.8,99.2,99.2,,"1 0 0 0"
"7/18/2021, 4:00:00 PM",38.9931110,-76.4413873,8.36614,631.6,-0.75,0.5,-5.5,312.1,0.0,0.0,0.2,299.1,,,-13.0,13.2,18.0,35,,,,92.0,99.2,99.2,,"1 0 0 0"
"7/18/2021, 3:55:00 PM",38.9931300,-76.4413596,8.30052,631.6,-0.75,0.5,-6.8,292.2,0.0,0.0,0.2,314.4,,,22.2,11.2,16.0,35,,,,91.2,99.2,99.2,,"1 0 0 0"
"7/18/2021, 3:50:00 PM",38.9931328,-76.4414400,8.39895,631.6,-0.75,0.3,-6.0,310.2,0.0,137.0,0.2,317.0,,,6.8,11.0,17.2,35,,,,91.6,99.2,99.2,,"1 0 0 0"
"7/18/2021, 3:45:00 PM",38.9930602,-76.4413971,8.46457,631.6,-1,0.0,-5.0,324.9,0.0,17.4,0.5,309.8,,,-15.1,13.2,19.1,35,,,,92.8,99.2,99.2,,"1 0 0 0"
"7/18/2021, 3:40:00 PM",38.9931898,-76.4413341,8.30052,631.6,-1.25,0.3,-6.3,297.4,0.0,62.3,0.7,312.4,15.0,15.8,15.0,15.8,20.6,35,,,,90.0,99.2,99.2,,"1 0 0 0"
"7/18/2021, 3:35:00 PM",38.9932302,-76.4413405,8.23491,631.6,-1,0.5,-4.8,267.5,0.0,206.1,0.2,320.3,,,52.8,10.8,15.5,35,,,,88.4,99.2,99.2,,"1 0 0 0"
"7/18/2021, 3:30:00 PM",38.9932538,-76.4413343,8.16929,631.6,-2.5,0.5,-5.5,265.8,0.0,0.0,0.1,288.8,,,23.0,11.1,15.9,35,,,,91.6,99.2,99.2,,"1 0 0 0"
"7/18/2021, 3:25:00 PM",38.9932672,-76.4414208,8.16929,631.6,-0.75,0.3,-5.5,280.9,0.0,11.1,1.2,278.5,-2.4,12.2,-2.4,12.2,17.7,35,,,,91.6,99.2,99.2,,"1 0 0 0"
"7/18/2021, 3:20:00 PM",38.9931584,-76.4414208,8.46457,631.6,-1,0.5,-5.0,279.8,0.0,194.8,0.4,293.4,,,13.6,11.9,16.7,35,,,,95.6,99.2,99.2,,"1 0 0 0"
"7/18/2021, 3:15:00 PM",38.9931286,-76.4413568,8.46457,631.6,-1,0.5,-6.3,290.6,0.0,85.3,0.5,300.4,,,9.8,11.7,20.1,35,,,,90.0,99.2,99.2,,"1 0 0 0"
"7/18/2021, 3:10:00 PM",38.9931518,-76.4413393,8.53018,631.6,-1,0.5,-5.5,295.6,0.0,176.7,0.4,292.2,,,-3.4,14.0,19.7,35,,,,91.6,99.2,99.2,,"1 0 0 0"
"7/18/2021, 3:05:00 PM",38.9931810,-76.4413436,8.46457,631.6,-1,0.0,-5.5,273.4,0.0,153.1,0.4,294.7,,,21.3,8.4,16.5,35,,,,90.0,99.2,99.2,,"1 0 0 0"
"7/18/2021, 3:00:00 PM",38.9931147,-76.4413728,8.59580,631.6,0,0.5,-5.0,306.3,0.0,222.6,0.3,288.1,,,-18.2,10.3,14.9,35,,,,91.2,99.2,99.2,,"1 0 0 0"
"7/18/2021, 2:55:00 PM",38.9930626,-76.4414091,8.66142,631.6,0,0.5,-4.5,332.5,0.0,30.1,0.4,293.8,,,-38.7,12.5,18.5,35,,,,91.6,99.2,99.2,,"1 0 0 0"
"7/18/2021, 2:50:00 PM",38.9930918,-76.4413800,8.79265,631.6,0,0.5,-6.5,291.9,0.0,190.2,0.4,316.0,,,24.1,10.3,16.4,35,,,,90.0,99.2,99.2,,"1 0 0 0"
"7/18/2021, 2:45:00 PM",38.9930752,-76.4413981,8.79265,631.6,0,0.5,-5.3,303.7,0.0,206.2,0.7,275.1,-28.6,10.1,-28.6,10.1,17.7,35,0,181.25,70,92.8,99.2,99.2,12.4,"1 0 0 0"
"7/18/2021, 2:40:00 PM",38.9931105,-76.4413823,8.59580,631.6,1.5,0.3,-6.3,299.0,0.0,237.1,0.6,300.2,1.2,15.2,1.2,15.2,17.7,35,,,,88.4,99.2,99.2,,"1 0 0 0"
"7/18/2021, 2:35:00 PM",38.9931955,-76.4413750,8.59580,631.6,0,0.3,-6.3,273.0,0.0,186.8,0.4,289.3,,,16.3,12.9,17.7,34.5,,,,90.0,99.2,99.2,,"1 0 0 0"
"7/18/2021, 2:30:00 PM",38.9931300,-76.4413998,8.59580,631.6,0,0.5,-5.3,317.7,0.0,49.3,0.5,304.0,,,-13.7,13.4,15.7,34.5,,,,90.0,99.2,99.2,,"1 0 0 0"
"7/18/2021, 2:25:00 PM",38.9931616,-76.4414720,8.59580,631.6,0,0.5,-5.5,303.4,0.0,0.0,0.2,313.1,,,9.7,9.3,17.7,34.5,,,,91.6,99.2,99.2,,"1 0 0 0"
"7/18/2021, 2:20:00 PM",38.9932512,-76.4414400,8.36614,631.6,-0.25,0.5,-4.8,288.4,0.0,341.0,0.4,293.9,,,5.5,13.2,17.1,34.5,,,,91.6,99.2,99.2,,"1 0 0 0"
"7/18/2021, 2:15:00 PM",38.9931786,-76.4413968,8.59580,631.6,0,0.5,-5.5,275.4,0.0,193.7,0.4,289.5,,,14.1,10.0,16.4,34.5,,,,90.8,99.2,99.2,,"1 0 0 0"
"7/18/2021, 2:10:00 PM",38.9932093,-76.4413701,8.59580,631.6,-0.75,0.3,-5.3,281.4,0.0,0.0,0.2,294.5,,,13.1,13.5,16.3,34.5,,,,91.6,99.2,99.2,,"1 0 0 0"
"7/18/2021, 2:05:00 PM",38.9932452,-76.4413646,8.53018,631.6,0,0.5,-6.0,266.0,0.0,327.4,0.6,284.8,18.8,12.4,18.8,12.4,16.9,34.5,,,,90.0,99.2,99.2,,"1 0 0 0"
"7/18/2021, 2:00:00 PM",38.9930265,-76.4415210,8.95669,631.6,-0.25,0.5,-5.8,337.4,1.0,152.1,1.6,276.1,-61.3,10.1,-56.7,10.6,21.4,34,1216,181.25,77,91.2,99.2,99.2,13.4,"1 0 0 0"
"7/18/2021, 1:55:00 PM",38.9870948,-76.4382901,19.78346,631.1,0.25,1.0,-2.8,20.6,7.5,15.7,7.8,305.5,-75.1,14.6,-51.3,18.0,22.8,33.5,2762,181.25,79,96.4,99.2,99.2,13.8,"1 0 0 0"
"7/18/2021, 1:50:00 PM",38.9779383,-76.4339328,16.89633,630.5,0.25,0.8,-3.0,325.8,7.4,317.4,8.0,294.5,-31.3,12.5,-19.8,19.2,24.7,33.5,2763,181,80,94.4,99.2,99.2,13.8,"1 0 0 0"
"7/18/2021, 1:45:00 PM",38.9732292,-76.4227261,14.00919,629.9,-0.5,0.3,-7.5,284.2,7.1,273.2,7.3,310.9,26.7,12.4,17.1,19.0,23.9,33.5,2759,181,80,88.0,99.2,99.2,13.8,"1 0 0 0"
"7/18/2021, 1:40:00 PM",38.9762493,-76.4104953,28.54331,629.3,1,1.0,-6.0,251.6,7.0,246.2,7.2,310.6,59.0,13.1,39.3,17.8,26.1,33.5,2760,181,80,91.6,99.2,99.2,13.8,"1 0 0 0"
"7/18/2021, 1:35:00 PM",38.9810203,-76.3985991,29.62598,628.7,0.25,0.8,-5.0,252.5,7.0,240.5,7.8,296.8,44.3,12.3,28.6,17.9,25.8,33.5,2763,180.75,80,91.6,99.2,99.2,13.8,"1 0 0 0"
"7/18/2021, 1:30:00 PM",38.9860300,-76.3864423,46.85039,628.2,0,0.8,-6.8,253.0,6.9,241.4,7.7,295.5,42.5,14.7,29.3,20.3,23.5,33.5,2760,180.75,80,93.6,99.2,99.2,13.9,"1 0 0 0"
"7/18/2021, 1:25:00 PM",38.9864751,-76.3802801,50.78740,627.8,-27.75,0.8,-2.5,84.5,2.5,121.0,4.3,310.0,-134.5,17.6,-128.1,15.9,21.4,33.5,1410,180.75,77,94.8,99.2,99.2,13.7,"1 0 0 0"
"7/18/2021, 1:20:00 PM",38.9890445,-76.3798748,52.26378,627.6,-0.75,0.3,-6.3,296.5,1.9,280.7,2.1,309.1,12.6,19.4,11.5,21.3,22.8,33.5,1104,180.5,77,94.4,99.2,99.2,13.7,"1 0 0 0"
"7/18/2021, 1:15:00 PM",38.9952150,-76.3792668,54.23228,627.2,-3.75,0.5,-8.0,215.9,6.3,207.3,6.7,318.5,102.6,13.8,76.4,13.9,20.8,33.5,2189,180.5,78,86.4,99.2,99.2,13.8,"1 0 0 0"
"7/18/2021, 1:10:00 PM",39.0024128,-76.3716800,56.69291,626.7,-1,0.3,-9.8,234.2,6.1,226.4,6.6,306.5,72.3,12.8,50.6,15.8,23.1,33.5,2190,180.5,78,84.8,99.2,99.2,13.7,"1 0 0 0"
"7/18/2021, 1:05:00 PM",39.0097132,-76.3634028,59.15354,626.2,-1.5,0.5,-13.5,234.9,6.3,221.8,6.5,296.7,61.8,15.7,45.3,19.5,26.9,33.5,2190,180.25,78,83.2,99.2,99.2,13.8,"1 0 0 0"
"7/18/2021, 1:00:00 PM",39.0171002,-76.3550845,54.13386,625.7,-0.5,0.3,-11.0,233.7,6.4,214.5,7.3,303.0,69.3,15.6,50.7,18.8,25.1,33.5,2189,180.25,78,83.2,99.2,99.2,13.7,"1 0 0 0"
"7/18/2021, 12:55:00 PM",39.0242260,-76.3467188,45.50525,625.1,2.25,-0.3,-17.3,236.0,6.3,209.2,6.9,303.8,67.8,14.6,48.9,18.0,24.5,33.5,2192,180.25,78,83.2,99.2,99.2,13.7,"1 0 0 0"
"7/18/2021, 12:50:00 PM",39.0312647,-76.3383313,45.27559,624.6,-6.25,-1.0,-16.3,237.6,6.4,209.6,6.9,297.7,60.1,14.0,42.2,18.1,25.9,33.5,2188,180,78,80.0,99.2,99.2,13.7,"1 0 0 0"
"7/18/2021, 12:45:00 PM",39.0381488,-76.3301223,26.44357,624.1,-0.25,0.8,-10.0,236.3,5.5,229.2,6.2,300.8,64.5,16.5,49.7,19.5,25.5,33.5,2189,180,78,81.2,99.2,99.2,13.6,"1 0 0 0"
"7/18/2021, 12:40:00 PM",39.0427316,-76.3251228,17.22441,623.7,0,0.5,-8.5,251.1,2.2,230.2,2.3,306.0,54.9,16.8,49.2,18.2,27.1,33.5,,,,88.0,99.2,99.2,,"1 0 0 0"
"7/18/2021, 12:35:00 PM",39.0479950,-76.3196538,15.74803,623.4,-1.25,-0.5,-11.0,234.0,4.6,211.8,5.5,287.3,53.3,12.2,39.5,15.4,21.2,33.5,,,,84.0,99.2,99.2,,"1 0 0 0"
"7/18/2021, 12:30:00 PM",39.0540735,-76.3135013,25.19685,622.9,-0.5,0.8,-15.0,237.4,6.0,213.7,6.8,318.7,81.3,14.2,59.7,16.2,24.8,33.5,,,,81.2,99.2,99.2,,"1 0 0 0"
"7/18/2021, 12:25:00 PM",39.0615407,-76.3052318,22.73622,622.4,-0.25,0.3,-17.3,239.1,5.9,215.9,6.9,316.0,76.9,16.5,59.2,18.8,23.3,33.5,,,,79.6,99.2,99.2,,"1 0 0 0"
"7/18/2021, 12:20:00 PM",39.0691982,-76.2973598,26.18110,621.9,0.25,0.0,-12.0,234.8,6.7,220.7,7.2,308.9,74.1,15.6,53.8,18.6,25.2,33.5,,,,82.0,99.2,99.2,,"1 0 0 0"
"7/18/2021, 12:15:00 PM",39.0771895,-76.2887165,25.45932,621.3,0.5,0.3,-10.0,234.4,6.5,226.1,6.6,327.5,93.1,16.4,71.1,17.3,24.2,33.5,,,,80.0,99.2,99.2,,"1 0 0 0"
