Time,Latitude,Longitude,Depth,Total Log,Rudder,Pitch,Roll,Heading,STW,COG,SOG,TWD,TWA,TWS,AWA,AWS,AWS (max),Water Temperature,RPM #1,Engine Hours #1,Coolant Temperature #1,Fuel #1,Water #1,Water #2,Battery #1,Bank 1
"6/29/2021, 7:20:00 PM",38.9667145,-76.4796838,8.95669,562.0,24.5,0.3,-5.0,245.7,0.0,0.0,0.1,201.8,,,-43.9,11.7,18.3,33,,,,58.4,99.2,99.2,,"1 0 0 0"
"6/29/2021, 7:15:00 PM",38.9666725,-76.4796611,8.89108,562.0,24.5,0.0,-5.3,245.7,0.0,0.0,0.1,203.0,,,-42.7,12.1,17.6,33,,,,58.0,99.2,99.2,,"1 0 0 0"
"6/29/2021, 7:10:00 PM",38.9666848,-76.4797440,8.89108,562.0,24.5,0.0,-5.3,245.7,0.0,0.0,0.1,208.9,,,-36.8,14.5,17.5,33,,,,57.6,99.2,99.2,,"1 0 0 0"
"6/29/2021, 7:05:00 PM",38.9667012,-76.4796833,8.85827,562.0,24.5,0.3,-5.3,245.7,0.0,293.7,0.5,207.3,,,-38.4,14.2,16.1,33.5,,,,61.6,99.2,99.2,,"1 0 0 0"
"6/29/2021, 7:00:00 PM",38.9666888,-76.4796911,8.89108,562.0,0,0.3,-5.0,245.8,0.0,312.8,0.3,209.5,,,-36.3,13.4,17.9,33.5,,,,61.6,99.2,99.2,,"1 0 0 0"
"6/29/2021, 6:55:00 PM",38.9667142,-76.4796830,8.95669,562.0,24.5,0.3,-5.3,245.6,0.0,0.0,0.2,207.3,,,-38.3,10.7,17.1,33.5,,,,59.2,99.2,99.2,,"1 0 0 0"
"6/29/2021, 6:50:00 PM",38.9667068,-76.4796843,8.85827,562.0,24.5,0.3,-5.0,245.7,0.0,0.0,0.2,211.7,,,-34.0,11.5,15.5,33.5,,,,61.6,99.2,99.2,,"1 0 0 0"
"6/29/2021, 6:45:00 PM",38.9667035,-76.4797295,8.85827,562.0,24.5,0.3,-5.0,245.6,0.0,0.0,0.1,201.9,,,-43.7,12.5,16.4,33.5,,,,61.6,99.2,99.2,,"1 0 0 0"
"6/29/2021, 6:40:00 PM",38.9666843,-76.4796460,8.85827,562.0,24.5,0.3,-5.0,245.7,0.0,0.0,0.1,207.8,,,-37.9,12.2,20.6,33.5,,,,61.6,99.2,99.2,,"1 0 0 0"
"6/29/2021, 6:35:00 PM",38.9667088,-76.4796804,8.79265,562.0,24.5,0.3,-4.8,245.7,0.0,0.0,0.1,210.2,,,-35.5,19.5,19.6,33.5,,,,60.4,99.2,99.2,,"1 0 0 0"
"6/29/2021, 6:30:00 PM",38.9666816,-76.4797248,8.66142,562.0,24.5,0.3,-5.0,245.7,0.0,255.6,0.4,201.1,,,-44.6,14.7,16.2,33.5,,,,60.4,99.2,99.2,,"1 0 0 0"
"6/29/2021, 6:25:00 PM",38.9667063,-76.4796893,8.85827,562.0,0,0.3,-5.0,245.6,0.0,40.4,0.4,209.8,,,-35.8,9.3,18.2,33.5,,,,61.6,99.2,99.2,,"1 0 0 0"
"6/29/2021, 6:20:00 PM",38.9666992,-76.4796963,8.66142,562.0,24.5,0.3,-5.5,245.8,0.0,0.0,0.1,214.9,,,-30.9,11.4,14.3,33.5,,,,61.6,99.2,99.2,,"1 0 0 0"
"6/29/2021, 6:15:00 PM",38.9667102,-76.4796806,8.59580,562.0,0,0.3,-5.3,245.7,0.0,343.2,0.3,202.1,,,-43.6,12.7,16.2,33.5,,,,61.6,99.2,99.2,,"1 0 0 0"
"6/29/2021, 6:10:00 PM",38.9667032,-76.4796723,8.59580,562.0,0,0.3,-5.3,245.9,0.0,0.0,0.1,214.9,,,-31.0,10.6,17.4,33.5,,,,59.2,99.2,99.2,,"1 0 0 0"
"6/29/2021, 6:05:00 PM",38.9666948,-76.4796826,8.59580,562.0,24.5,0.3,-5.0,245.8,0.0,0.0,0.1,213.4,,,-32.4,12.1,15.0,33.5,,,,61.6,99.2,99.2,,"1 0 0 0"
"6/29/2021, 6:00:00 PM",38.9666823,-76.4796760,8.72703,562.0,0,0.3,-5.3,245.8,0.0,0.0,0.2,203.0,,,-42.8,11.8,17.8,33.5,,,,61.6,99.2,99.2,,"1 0 0 0"
"6/29/2021, 5:55:00 PM",38.9666965,-76.4797001,8.59580,562.0,24.5,0.3,-5.3,245.8,0.0,0.0,0.2,205.7,,,-40.1,12.4,16.9,33.5,,,,58.8,99.2,99.2,,"1 0 0 0"
"6/29/2021, 5:50:00 PM",38.9666953,-76.4796940,8.59580,562.0,24.5,0.3,-5.0,245.8,0.0,0.0,0.1,218.9,,,-26.9,15.5,17.8,33.5,,,,61.6,99.2,99.2,,"1 0 0 0"
"6/29/2021, 5:45:00 PM",38.9666917,-76.4796961,8.59580,562.0,24.5,0.3,-5.0,245.8,0.0,0.0,0.1,199.4,,,-46.4,12.3,17.9,33.5,,,,58.8,99.2,99.2,,"1 0 0 0"
"6/29/2021, 5:40:00 PM",38.9666888,-76.4796941,8.53018,562.0,24.5,0.3,-5.3,245.8,0.0,0.0,0.0,213.7,,,-32.1,12.8,21.0,33.5,,,,61.6,99.2,99.2,,"1 0 0 0"
"6/29/2021, 5:35:00 PM",38.9666987,-76.4796958,8.66142,562.0,24.5,0.3,-5.3,245.9,0.0,0.0,0.1,204.4,,,-41.5,13.5,17.0,33.5,,,,61.6,99.2,99.2,,"1 0 0 0"
"6/29/2021, 5:30:00 PM",38.9666965,-76.4796740,8.66142,562.0,0,0.3,-5.3,246.0,0.0,0.0,0.0,215.5,,,-30.5,11.8,16.0,33.5,,,,61.6,99.2,99.2,,"1 0 0 0"
"6/29/2021, 5:25:00 PM",38.9667037,-76.4797075,8.59580,562.0,24.5,0.3,-5.5,245.8,0.0,0.0,0.1,209.4,,,-36.4,11.1,14.3,33.5,,,,61.6,99.2,99.2,,"1 0 0 0"
"6/29/2021, 5:20:00 PM",38.9666910,-76.4797090,8.72703,562.0,0,0.3,-5.0,245.9,0.0,300.5,0.3,199.7,,,-46.2,9.1,15.3,33.5,,,,60.4,99.2,99.2,,"1 0 0 0"
"6/29/2021, 5:15:00 PM",38.9666843,-76.4796948,8.59580,562.0,24.5,0.3,-5.0,245.9,0.0,0.0,0.0,197.6,,,-48.3,7.0,13.3,33.5,,,,61.6,99.2,99.2,,"1 0 0 0"
"6/29/2021, 5:10:00 PM",38.9666916,-76.4796955,8.59580,562.0,24.5,0.3,-5.0,245.9,0.0,0.0,0.1,205.4,,,-40.5,9.8,14.0,33.5,,,,61.6,99.2,99.2,,"1 0 0 0"
"6/29/2021, 5:05:00 PM",38.9667035,-76.4796963,8.46457,562.0,0,0.3,-4.8,245.9,0.0,0.0,0.2,185.8,,,-60.1,11.3,14.5,33.5,,,,61.6,99.2,99.2,,"1 0 0 0"
"6/29/2021, 5:00:00 PM",38.9666995,-76.4796881,8.46457,562.0,24.5,0.3,-4.3,245.9,0.0,0.0,0.1,201.6,,,-44.3,8.8,15.1,33.5,,,,60.4,99.2,99.2,,"1 0 0 0"
"6/29/2021, 4:55:00 PM",38.9666843,-76.4796815,8.66142,562.0,0,0.3,-5.0,245.9,0.0,108.9,0.3,207.0,,,-38.9,9.8,14.4,33,,,,61.6,99.2,99.2,,"1 0 0 0"
"6/29/2021, 4:50:00 PM",38.9666720,-76.4797440,8.59580,562.0,24.5,0.3,-5.5,245.9,0.0,0.0,0.1,207.1,,,-38.8,12.9,16.3,33,,,,57.6,99.2,99.2,,"1 0 0 0"
"6/29/2021, 4:45:00 PM",38.9667008,-76.4797568,8.36614,562.0,24.5,0.3,-5.5,243.6,0.0,0.0,0.2,208.2,,,-35.4,9.5,19.0,33,795,172,76,61.6,99.2,99.2,13.2,"1 0 0 0"
"6/29/2021, 4:40:00 PM",38.9664247,-76.4796751,8.66142,562.0,-0.5,0.3,-5.3,239.4,0.0,228.9,3.0,208.9,-30.5,13.5,-30.5,13.5,18.7,32.5,1288,171.75,78,61.6,99.2,99.2,13.7,"1 0 0 0"
"6/29/2021, 4:35:00 PM",38.9686215,-76.4714695,17.58530,562.0,0.5,0.5,-3.8,226.6,0.0,213.7,6.7,194.4,-32.2,17.3,-32.2,17.3,23.1,31.5,2174,171.75,79,61.6,99.2,99.2,13.8,"1 0 0 0"
"6/29/2021, 4:30:00 PM",38.9773145,-76.4710623,15.41995,562.0,0,0.8,-6.3,156.8,0.0,144.8,7.2,177.7,20.9,20.6,20.9,20.6,26.2,31.5,2668,171.75,79,58.8,99.2,99.2,13.8,"1 0 0 0"
"6/29/2021, 4:25:00 PM",38.9854128,-76.4790971,20.27559,562.0,1,0.8,-6.5,151.4,0.0,137.6,8.0,173.1,21.7,16.4,21.7,16.4,25.9,31.5,2669,171.5,79,57.6,99.2,99.2,13.7,"1 0 0 0"
"6/29/2021, 4:20:00 PM",38.9931918,-76.4872236,21.75197,562.0,-5.75,0.0,-6.5,157.9,0.0,150.4,3.3,169.5,11.6,20.7,11.6,20.7,24.2,31.5,801,171.5,81,55.2,99.2,99.2,13.7,"1 0 0 0"
"6/29/2021, 4:15:00 PM",39.0013950,-76.4945363,21.75197,562.0,0.25,0.8,-6.8,142.7,0.0,129.6,7.6,171.3,28.6,24.0,28.6,24.0,25.0,31.5,2659,171.5,79,56.4,99.2,99.2,13.7,"1 0 0 0"
"6/29/2021, 4:10:00 PM",39.0068256,-76.5048320,20.27559,562.0,0,0.8,-7.3,143.4,0.0,132.8,7.4,179.6,36.2,15.6,36.2,15.6,21.6,31.5,2593,171.25,79,55.2,99.2,99.2,13.7,"1 0 0 0"
"6/29/2021, 4:05:00 PM",39.0120907,-76.5134668,28.64173,562.0,1,0.5,-6.0,145.0,0.0,130.8,3.2,159.5,14.5,15.6,14.5,15.6,18.0,32,1192,171.25,77,57.6,99.2,99.2,13.6,"1 0 0 0"
"6/29/2021, 4:00:00 PM",39.0153452,-76.5179076,30.11811,562.0,-0.25,0.8,-5.5,150.0,0.0,135.7,7.8,157.4,7.4,16.5,7.4,16.5,23.2,32,2647,171.25,79,58.8,99.2,99.2,13.6,"1 0 0 0"
"6/29/2021, 3:55:00 PM",39.0230743,-76.5262296,34.67848,562.0,0.75,0.8,-6.5,155.5,0.0,139.7,7.2,166.6,11.1,22.1,11.1,22.1,23.4,32.5,2644,171,79,61.6,99.2,99.2,13.6,"1 0 0 0"
"6/29/2021, 3:50:00 PM",39.0278976,-76.5293078,26.67323,562.0,-0.25,0.8,-5.0,162.6,0.0,154.1,7.5,163.4,0.8,19.9,0.8,19.9,24.0,33,2708,171,79,58.8,99.2,99.2,13.6,"1 0 0 0"
"6/29/2021, 3:45:00 PM",39.0353607,-76.5375925,24.21260,562.0,0.25,0.8,-5.8,140.5,0.0,128.7,6.9,153.0,12.5,22.1,12.5,22.1,24.3,33,2708,171,80,61.6,99.2,99.2,13.6,"1 0 0 0"
"6/29/2021, 3:40:00 PM",39.0388928,-76.5428480,19.29134,562.0,-31.75,0.5,-5.3,207.0,0.0,258.3,0.9,145.7,-61.3,15.8,-61.3,15.8,22.8,33,801,170.75,77,59.2,99.2,99.2,13.4,"1 0 0 0"
"6/29/2021, 3:35:00 PM",39.0390910,-76.5431378,19.29134,562.0,0,0.8,-5.8,147.3,0.0,132.8,7.1,154.2,6.9,22.8,6.9,22.8,24.4,32.5,2711,170.75,80,61.6,99.2,99.2,13.6,"1 0 0 0"
"6/29/2021, 3:30:00 PM",39.0416336,-76.5533743,20.66929,562.0,-1,1.0,-6.3,42.3,0.0,33.0,7.8,110.1,67.8,12.8,67.8,12.8,13.9,33,2713,170.75,80,59.6,99.2,99.2,13.6,"1 0 0 0"
"6/29/2021, 3:25:00 PM",39.0390446,-76.5556041,18.86483,562.0,31.75,0.5,-5.5,298.0,0.0,249.4,1.9,155.2,-142.8,6.3,-142.8,6.3,16.0,32.5,796,170.5,78,61.6,99.2,99.2,13.3,"1 0 0 0"
"6/29/2021, 3:20:00 PM",39.0400148,-76.5493995,20.40682,562.0,-2,0.8,-5.3,55.3,0.0,52.2,7.7,99.2,43.9,12.0,43.9,12.0,18.8,33,2802,170.5,80,61.6,99.2,99.2,13.6,"1 0 0 0"
"6/29/2021, 3:15:00 PM",39.0370400,-76.5562816,18.93045,562.0,1,0.5,-6.0,47.0,0.0,36.9,3.4,126.1,79.1,12.5,79.1,12.5,14.0,33.5,1159,170.5,77,60.4,99.2,99.2,13.5,"1 0 0 0"
"6/29/2021, 3:10:00 PM",39.0354630,-76.5572949,17.88058,562.0,7.25,0.3,-5.8,112.0,0.0,54.1,0.5,122.4,,,10.4,8.6,12.6,33.5,800,170.25,72,61.6,99.2,99.2,13.0,"1 0 0 0"
"6/29/2021, 3:05:00 PM",39.0355712,-76.5571840,18.24147,562.0,9.75,0.5,-5.3,163.0,0.0,0.0,0.1,147.1,,,-15.9,10.1,12.8,33.5,799,170.25,60,61.6,99.2,99.2,13.1,"1 0 0 0"
"6/29/2021, 3:00:00 PM",39.0355792,-76.5572500,18.24147,562.0,22.25,0.5,-5.3,106.3,0.0,28.1,0.5,101.5,,,-4.8,5.5,14.1,33,,,,61.6,99.2,99.2,,"1 0 0 0"
"6/29/2021, 2:55:00 PM",39.0356680,-76.5572215,18.24147,562.0,22.25,0.3,-5.8,142.1,0.0,177.3,0.3,159.1,,,17.0,9.6,12.8,33,,,,61.6,99.2,99.2,,"1 0 0 0"
"6/29/2021, 2:50:00 PM",39.0355648,-76.5571200,18.24147,562.0,-0.5,0.3,-5.5,109.0,0.0,28.5,0.2,144.9,,,35.9,5.4,12.0,33,,,,61.6,99.2,99.2,,"1 0 0 0"
"6/29/2021, 2:45:00 PM",39.0355104,-76.5570752,18.20866,562.0,22,0.5,-5.3,129.9,0.0,0.0,0.2,115.5,,,-14.4,5.8,11.3,33,,,,60.4,99.2,99.2,,"1 0 0 0"
"6/29/2021, 2:40:00 PM",39.0353960,-76.5568821,17.51969,562.0,0.5,0.3,-6.3,352.2,0.0,255.8,0.2,117.8,,,125.6,4.1,4.3,33,,,,61.6,99.2,99.2,,"1 0 0 0"
"6/29/2021, 2:35:00 PM",39.0354045,-76.5569575,17.38845,562.0,22,0.3,-5.5,25.9,0.0,117.4,0.3,248.2,,,-137.7,3.6,6.6,33,,,,61.6,99.2,99.2,,"1 0 0 0"
"6/29/2021, 2:30:00 PM",39.0353823,-76.5569041,17.38845,562.0,22.25,0.5,-5.0,342.0,0.0,259.0,0.9,19.2,37.2,0.0,37.2,0.0,7.2,33,,,,61.6,99.2,99.2,,"1 0 0 0"
"6/29/2021, 2:25:00 PM",39.0354560,-76.5568256,17.15879,562.0,22,0.5,-5.0,317.4,0.0,207.6,0.2,323.1,,,5.7,3.1,6.8,33,,,,64.0,99.2,99.2,,"1 0 0 0"
"6/29/2021, 2:20:00 PM",39.0355616,-76.5568064,18.07743,562.0,22,0.5,-5.3,250.9,0.0,132.1,0.0,236.3,,,-14.6,2.3,9.6,33,,,,61.6,99.2,99.2,,"1 0 0 0"
"6/29/2021, 2:15:00 PM",39.0355649,-76.5567021,17.94619,562.0,22,0.3,-5.5,275.8,0.0,319.6,0.7,257.5,-18.3,7.1,-18.3,7.1,11.3,33,,,,61.6,99.2,99.2,,"1 0 0 0"
"6/29/2021, 2:10:00 PM",39.0355040,-76.5568000,17.74934,562.0,23,0.3,-6.0,276.4,0.0,0.0,0.1,300.8,,,24.4,5.8,10.9,33,,,,60.0,99.2,99.2,,"1 0 0 0"
"6/29/2021, 2:05:00 PM",39.0355258,-76.5567346,17.71654,562.0,-0.75,0.5,-5.3,259.8,0.0,173.4,0.4,292.9,,,33.1,7.2,12.9,33,,,,61.6,99.2,99.2,,"1 0 0 0"
"6/29/2021, 2:00:00 PM",39.0355263,-76.5567455,17.94619,562.0,23.25,0.3,-5.5,265.1,0.0,179.3,0.3,327.2,,,62.1,5.2,11.1,33,,,,61.6,99.2,99.2,,"1 0 0 0"
"6/29/2021, 1:55:00 PM",39.0356867,-76.5568790,18.37270,562.0,-1,0.3,-5.3,209.2,0.0,0.0,0.0,315.4,,,106.2,3.2,7.3,33,,,,61.6,99.2,99.2,,"1 0 0 0"
"6/29/2021, 1:50:00 PM",39.0356508,-76.5567856,17.81496,562.0,24.25,0.5,-5.0,244.7,0.0,330.8,0.3,209.0,,,-35.7,4.1,10.7,33,,,,62.8,99.2,99.2,,"1 0 0 0"
"6/29/2021, 1:45:00 PM",39.0355570,-76.5567220,17.32283,562.0,24.25,0.3,-5.3,269.5,0.0,293.5,0.4,279.1,,,9.6,3.3,9.1,33,,,,61.6,99.2,99.2,,"1 0 0 0"
"6/29/2021, 1:40:00 PM",39.0355955,-76.5567688,17.81496,562.0,26,0.3,-5.5,266.3,0.0,0.0,0.2,240.5,,,-25.8,4.3,11.3,33,,,,61.6,99.2,99.2,,"1 0 0 0"
"6/29/2021, 1:35:00 PM",39.0355670,-76.5567230,17.81496,562.0,25.25,0.5,-5.3,274.0,0.0,0.0,0.1,273.8,,,-0.2,5.1,11.0,33,,,,61.6,99.2,99.2,,"1 0 0 0"
"6/29/2021, 1:30:00 PM",39.0354741,-76.5567319,17.32283,562.0,1,0.3,-5.3,306.1,0.0,346.3,0.3,272.1,,,-34.0,4.7,10.1,33,,,,61.6,99.2,99.2,,"1 0 0 0"
"6/29/2021, 1:25:00 PM",39.0356058,-76.5567656,17.81496,562.0,25.25,0.5,-5.3,262.8,0.0,0.0,0.2,222.3,,,-40.5,4.7,6.0,33,,,,61.6,99.2,99.2,,"1 0 0 0"
"6/29/2021, 1:20:00 PM",39.0355457,-76.5568021,17.81496,562.0,0.25,0.3,-4.5,277.9,0.0,199.0,0.3,234.3,,,-43.6,3.0,8.1,32.5,,,,61.6,99.2,99.2,,"1 0 0 0"
"6/29/2021, 1:15:00 PM",39.0355957,-76.5568180,17.81496,562.0,25.5,0.5,-5.3,272.6,0.0,338.9,0.3,218.6,,,-54.0,2.5,7.7,32.5,,,,61.6,99.2,99.2,,"1 0 0 0"
"6/29/2021, 1:10:00 PM",39.0355360,-76.5567703,18.07743,562.0,25.5,0.3,-5.8,288.4,0.0,0.0,0.1,171.7,,,-116.7,3.4,7.6,32.5,,,,61.6,99.2,99.2,,"1 0 0 0"
"6/29/2021, 1:05:00 PM",39.0355293,-76.5567593,17.81496,562.0,25.5,0.5,-5.0,297.3,0.0,0.4,0.5,239.6,,,-57.7,6.9,7.7,32,,,,62.0,99.2,99.2,,"1 0 0 0"
"6/29/2021, 1:00:00 PM",39.0355900,-76.5568421,17.81496,562.0,25.5,0.5,-4.8,235.5,0.0,110.2,0.5,284.2,,,48.7,2.0,8.5,32,,,,61.6,99.2,99.2,,"1 0 0 0"
"6/29/2021, 12:55:00 PM",39.0363520,-76.5572928,19.29134,562.0,-0.5,0.5,-4.8,189.1,0.0,167.9,2.1,228.2,39.1,7.4,39.1,7.4,16.3,32,802,170,78,61.6,99.2,99.2,13.7,"1 0 0 0"
"6/29/2021, 12:50:00 PM",39.0372928,-76.5478656,19.29134,562.0,0,0.8,-4.0,301.3,0.0,290.8,7.9,284.5,-16.8,10.5,-16.8,10.5,14.7,32,2683,170,79,61.6,99.2,99.2,13.9,"1 0 0 0"
"6/29/2021, 12:45:00 PM",39.0336923,-76.5353363,28.64173,562.0,0.25,0.8,-4.5,304.9,0.0,293.0,7.5,298.7,-6.2,6.7,-6.2,6.7,7.0,32,2683,170,79,61.6,99.2,99.2,13.8,"1 0 0 0"
"6/29/2021, 12:40:00 PM",39.0260572,-76.5269786,33.07087,562.0,0,0.8,-4.3,343.3,0.0,333.8,7.5,306.2,-37.1,1.1,-37.1,1.1,3.1,31.5,2685,169.75,79,62.8,99.2,99.2,13.9,"1 0 0 0"
"6/29/2021, 12:35:00 PM",39.0175127,-76.5193019,37.40157,562.0,0.25,0.8,-4.8,328.0,0.0,318.4,7.7,67.9,99.9,0.4,99.9,0.4,4.7,31,2685,169.75,79,61.6,99.2,99.2,13.8,"1 0 0 0"
"6/29/2021, 12:30:00 PM",39.0104128,-76.5092281,33.07087,562.0,0,0.8,-4.8,324.2,0.0,312.6,7.7,80.4,116.2,2.5,116.2,2.5,7.7,31,2683,169.75,79,61.6,99.2,99.2,13.9,"1 0 0 0"
"6/29/2021, 12:25:00 PM",39.0041221,-76.4999996,21.75197,562.0,0.75,0.8,-4.8,314.9,0.0,302.7,7.6,167.1,-147.8,2.8,-147.8,2.8,6.1,30.5,2641,169.5,79,62.4,99.2,99.2,13.9,"1 0 0 0"
"6/29/2021, 12:20:00 PM",38.9975428,-76.4896885,20.76772,562.0,-0.75,0.8,-5.8,327.5,0.0,317.9,7.5,150.8,-176.7,5.7,-176.7,5.7,15.3,30.5,2643,169.5,79,61.6,99.2,99.2,13.9,"1 0 0 0"
"6/29/2021, 12:15:00 PM",38.9902196,-76.4834018,19.29134,562.0,1,0.8,-4.8,326.7,0.0,311.0,7.0,167.7,-159.0,3.9,-159.0,3.9,6.7,30.5,2688,169.5,79,60.4,99.2,99.2,14.0,"1 0 0 0"
"6/29/2021, 12:10:00 PM",38.9823357,-76.4745928,25.19685,562.0,-0.25,0.8,-5.8,333.6,0.0,321.8,8.1,173.8,-159.8,5.1,-159.8,5.1,8.7,30.5,2687,169.25,79,64.0,99.2,99.2,14.0,"1 0 0 0"
"6/29/2021, 12:05:00 PM",38.9733354,-76.4687471,17.94619,562.0,-0.75,0.5,-5.0,6.4,0.0,359.1,7.0,137.7,131.3,7.9,131.3,7.9,15.6,30.5,2519,169.25,79,62.8,99.2,99.2,14.0,"1 0 0 0"
"6/29/2021, 12:00:00 PM",38.9677500,-76.4762736,9.84252,562.0,0.75,0.3,-5.3,77.9,0.0,60.4,5.8,73.8,-4.1,6.9,-4.1,6.9,12.9,31.5,1967,169.25,66,65.2,99.2,99.2,14.0,"1 0 0 0"
"6/29/2021, 11:55:00 AM",38.9667150,-76.4797265,9.21916,562.0,31.75,0.0,-5.8,246.1,0.0,241.3,0.2,231.9,,,-14.2,5.3,7.9,31.5,798,169,42,61.6,99.2,99.2,13.9,"1 0 0 0"
"6/29/2021, 11:50:00 AM",38.9667018,-76.4796728,9.35039,562.0,0,0.3,-4.8,244.7,0.0,0.0,0.0,206.2,,,-38.5,6.7,8.9,31.5,,,,64.4,99.2,99.6,,"1 0 0 0"
"6/29/2021, 11:45:00 AM",38.9666688,-76.4797440,9.35039,562.0,0,0.3,-5.8,244.3,0.0,,0.0,208.0,,,-36.3,5.4,5.9,32,,,,61.6,99.6,99.6,,"1 0 0 0"
"6/28/2021, 7:09:00 PM",38.9666400,-76.4797312,9.44882,562.0,31.75,0.5,-5.3,247.0,0.0,10.8,0.3,200.6,,,-45.6,13.5,18.4,31.5,803,169,77,62.0,68.8,99.2,13.2,"1 0 0 0"
"6/28/2021, 7:04:00 PM",38.9667028,-76.4797023,9.38320,562.0,31.75,0.3,-6.0,242.6,0.0,0.0,0.2,192.4,,,-49.5,12.1,16.5,31.5,797,169,76,61.6,70.8,99.2,13.0,"1 0 0 0"
"6/28/2021, 6:59:00 PM",38.9663281,-76.4798363,9.21916,562.0,0,0.5,-5.0,233.3,0.0,234.9,1.5,192.2,-41.1,11.7,-36.8,12.9,20.0,31,799,169,77,64.0,70.8,99.2,13.6,"1 0 0 0"
"6/28/2021, 6:54:00 PM",38.9684676,-76.4744428,10.07218,562.0,0.75,0.3,-5.8,250.9,0.0,240.7,3.6,213.1,-37.8,5.2,-22.5,8.3,25.0,30,1364,168.75,78,61.6,65.6,99.2,13.6,"1 0 0 0"
"6/28/2021, 6:49:00 PM",38.9665313,-76.4634713,17.25722,562.0,-0.25,0.5,-4.3,288.0,0.0,278.8,7.6,191.4,-96.6,16.7,-71.2,17.5,28.2,29.5,2609,168.75,79,68.0,64.4,99.2,13.7,"1 0 0 0"
"6/28/2021, 6:44:00 PM",38.9668582,-76.4505808,11.84383,562.0,1,0.5,-5.3,263.7,0.0,248.6,7.1,197.3,-66.4,17.8,-49.0,21.7,27.2,29.5,2611,168.75,79,68.0,60.4,99.2,13.6,"1 0 0 0"
"6/28/2021, 6:39:00 PM",38.9726240,-76.4419461,16.66667,562.0,-0.5,0.8,-5.5,224.7,0.0,211.9,5.7,189.0,-35.7,17.2,-27.1,22.0,26.5,30,2610,168.5,79,65.2,60.0,99.2,13.6,"1 0 0 0"
"6/28/2021, 6:34:00 PM",38.9805475,-76.4382371,15.97769,562.0,0.25,0.8,-4.8,200.9,0.0,181.1,6.3,188.4,-12.5,15.4,-8.9,21.6,26.6,30.5,2613,168.5,79,68.4,62.8,99.2,13.6,"1 0 0 0"
"6/28/2021, 6:29:00 PM",38.9893980,-76.4380655,15.19029,562.0,0,0.5,-4.0,261.1,0.0,255.0,7.1,192.8,-68.3,15.9,-48.8,19.7,25.3,31,2610,168.5,79,68.4,59.2,99.2,13.5,"1 0 0 0"
"6/28/2021, 6:24:00 PM",38.9948863,-76.4282691,11.54856,562.0,-0.5,0.8,-2.8,226.6,0.0,213.6,7.6,182.8,-43.8,15.9,-30.0,22.0,27.4,31.5,2613,168.25,79,66.8,64.4,99.2,13.6,"1 0 0 0"
"6/28/2021, 6:19:00 PM",38.9994797,-76.4250571,11.41732,562.0,1.75,0.5,-6.0,166.2,0.0,40.8,0.3,181.7,,,15.3,18.3,21.2,32,799,168.25,62,64.0,64.0,99.2,13.0,"1 0 0 0"
"6/28/2021, 6:14:00 PM",38.9993664,-76.4250048,11.25328,562.0,1.75,0.5,-4.5,212.8,0.0,320.9,0.3,192.3,,,-20.1,13.9,19.3,32,,,,63.2,67.2,99.2,,"1 0 0 0"
"6/28/2021, 6:09:00 PM",38.9993848,-76.4250115,11.12205,562.0,1.75,0.5,-5.5,182.8,0.0,199.2,0.2,185.6,,,2.8,14.9,18.4,32,,,,64.0,74.4,99.2,,"1 0 0 0"
"6/28/2021, 6:04:00 PM",38.9992992,-76.4249408,11.12205,562.0,1,0.5,-6.5,217.6,0.0,0.0,0.2,200.5,,,-16.9,12.1,18.8,32,,,,64.0,76.0,99.2,,"1 0 0 0"
"6/28/2021, 5:59:00 PM",38.9993265,-76.4249606,11.05643,562.0,1,0.5,-6.3,186.1,0.0,10.7,0.3,205.2,,,18.8,14.4,18.7,32,,,,65.2,76.0,99.2,,"1 0 0 0"
"6/28/2021, 5:54:00 PM",38.9992512,-76.4249728,11.05643,562.0,1.5,0.8,-5.0,208.6,0.0,99.9,0.2,172.3,,,-35.9,14.9,19.0,32,,,,64.0,76.0,99.2,,"1 0 0 0"
"6/28/2021, 5:49:00 PM",38.9992734,-76.4250285,10.85958,562.0,1,0.3,-6.0,179.4,0.0,13.8,0.4,184.5,,,5.0,13.9,17.1,32,,,,64.0,72.4,99.2,,"1 0 0 0"
"6/28/2021, 5:44:00 PM",38.9992583,-76.4249768,10.99081,562.0,0,0.5,-5.5,185.0,0.0,0.0,0.2,199.7,,,14.5,12.5,18.5,32,,,,64.4,74.0,99.2,,"1 0 0 0"
"6/28/2021, 5:38:00 PM",38.9992360,-76.4250048,10.82677,562.0,1,0.5,-5.0,173.4,0.0,64.9,0.3,181.0,,,7.5,16.8,20.3,32,,,,62.8,69.2,99.2,,"1 0 0 0"
"6/28/2021, 5:33:00 PM",38.9992473,-76.4249753,10.69554,562.0,0,0.3,-5.8,199.2,0.0,0.0,0.1,183.2,,,-15.9,11.8,16.8,32,,,,65.2,76.0,99.2,,"1 0 0 0"
"6/28/2021, 5:28:00 PM",38.9992468,-76.4249331,10.85958,562.0,1,0.5,-5.8,201.3,0.0,214.8,0.3,191.0,,,-10.1,11.6,17.6,31.5,,,,64.0,78.0,99.2,,"1 0 0 0"
"6/28/2021, 5:23:00 PM",38.9992315,-76.4249436,10.76115,562.0,1,0.5,-5.8,211.0,0.0,314.7,0.5,203.2,,,-7.5,10.4,16.2,31.5,,,,65.2,74.4,99.2,,"1 0 0 0"
"6/28/2021, 5:18:00 PM",38.9992367,-76.4249091,10.82677,562.0,1,0.5,-5.5,214.1,0.0,280.5,0.4,195.8,,,-17.6,9.5,18.3,31.5,,,,64.0,77.6,99.2,,"1 0 0 0"
"6/28/2021, 5:13:00 PM",38.9992242,-76.4249471,10.99081,562.0,1,0.3,-6.0,202.5,0.0,273.6,0.6,189.5,-13.0,11.1,-12.4,11.7,19.2,31.5,,,,65.2,76.0,99.2,,"1 0 0 0"
"6/28/2021, 5:08:00 PM",38.9992253,-76.4249573,10.56430,562.0,1,0.3,-5.8,188.3,0.0,93.6,0.6,190.5,2.2,9.7,2.1,10.2,20.3,31.5,,,,64.0,77.6,99.2,,"1 0 0 0"
"6/28/2021, 5:03:00 PM",38.9991690,-76.4249995,10.49869,562.0,1,0.5,-6.3,167.5,0.0,113.5,0.5,193.4,,,25.1,14.3,20.0,31.5,,,,64.0,75.6,99.2,,"1 0 0 0"
"6/28/2021, 4:58:00 PM",38.9991363,-76.4249323,10.76115,562.0,1,0.3,-5.5,209.1,0.0,266.1,0.4,202.3,,,-6.6,11.0,19.4,31.5,,,,64.8,79.2,99.2,,"1 0 0 0"
"6/28/2021, 4:53:00 PM",38.9991478,-76.4249366,10.69554,562.0,1,0.5,-5.3,186.4,0.0,101.0,0.5,196.3,,,9.6,12.7,16.5,31.5,,,,64.0,79.6,99.2,,"1 0 0 0"
"6/28/2021, 4:48:00 PM",38.9991278,-76.4249576,10.82677,562.0,-0.25,0.5,-6.0,189.4,0.0,0.0,0.0,201.4,,,12.0,12.8,16.6,31.5,,,,64.0,79.6,99.2,,"1 0 0 0"
"6/28/2021, 4:43:00 PM",38.9992613,-76.4251335,10.92520,562.0,-8.5,0.5,-6.0,160.8,0.0,149.7,0.6,189.5,28.7,11.4,27.4,11.9,15.4,31,805,168.25,77,68.4,79.6,99.2,13.0,"1 0 0 0"
"6/28/2021, 4:38:00 PM",38.9974775,-76.4254618,10.26903,562.0,1.75,0.3,-5.8,35.9,0.0,24.9,5.2,184.0,148.1,12.3,129.1,8.4,18.6,31,1441,168,77,62.8,79.6,99.2,13.7,"1 0 0 0"
"6/28/2021, 4:33:00 PM",38.9905870,-76.4337355,12.82808,562.0,0.75,0.5,-7.8,68.1,0.0,55.3,7.8,187.9,119.8,15.3,89.3,13.3,20.8,30.5,2733,168,79,66.8,67.6,99.2,13.7,"1 0 0 0"
"6/28/2021, 4:28:00 PM",38.9815813,-76.4366958,12.79528,562.0,-0.75,0.8,-4.0,350.4,0.0,342.5,8.0,188.9,-161.5,17.5,-147.3,10.2,12.4,30,2731,168,79,68.0,72.8,99.2,13.7,"1 0 0 0"
"6/28/2021, 4:23:00 PM",38.9707258,-76.4343958,18.30709,562.0,-2.25,0.5,-6.0,6.9,0.0,352.2,7.6,192.0,-174.9,18.8,-171.5,11.3,17.8,29,2731,167.75,79,62.8,74.8,99.2,13.7,"1 0 0 0"
"6/28/2021, 4:18:00 PM",38.9609986,-76.4323519,20.27559,562.0,-1.25,1.0,-6.5,4.6,0.0,349.1,7.8,190.9,-173.7,15.5,-167.6,7.8,10.0,29,2731,167.75,79,65.6,72.8,99.2,13.7,"1 0 0 0"
"6/28/2021, 4:13:00 PM",38.9506969,-76.4291591,24.21260,562.0,1.5,1.0,-4.8,355.2,0.0,341.8,7.8,191.0,-164.2,14.3,-146.9,7.1,10.7,29,2732,167.75,79,68.0,75.2,99.2,13.6,"1 0 0 0"
"6/28/2021, 4:08:00 PM",38.9404540,-76.4285493,22.24409,562.0,-1.25,0.8,-5.8,2.7,0.0,354.1,7.9,180.9,178.2,15.3,176.3,7.4,10.7,29,2734,167.5,79,66.8,72.8,99.2,13.6,"1 0 0 0"
"6/28/2021, 4:03:00 PM",38.9306720,-76.4268608,31.10236,562.0,-1.25,1.0,-2.8,357.9,0.0,350.6,8.2,181.0,-176.9,15.6,-173.6,7.5,11.3,29,2731,167.5,79,68.0,79.2,99.2,13.6,"1 0 0 0"
"6/28/2021, 3:58:00 PM",38.9209650,-76.4255216,32.08661,562.0,-5.25,0.5,-7.3,23.3,0.0,9.9,7.2,181.3,158.0,15.5,141.0,9.2,10.3,29,2732,167.5,79,61.6,78.0,99.2,13.6,"1 0 0 0"
"6/28/2021, 3:53:00 PM",38.9111279,-76.4244935,34.54724,562.0,-0.25,0.5,-6.0,4.2,0.0,352.5,7.3,181.8,177.6,15.7,175.6,8.5,10.7,29,2732,167.25,79,69.2,83.6,99.2,13.6,"1 0 0 0"
"6/28/2021, 3:48:00 PM",38.9010543,-76.4230166,39.46850,562.0,0,0.5,-7.5,353.2,0.0,335.2,7.6,185.4,-167.8,14.7,-155.5,7.5,25.7,29,2732,167.25,80,71.6,77.6,99.2,13.6,"1 0 0 0"
"6/28/2021, 3:43:00 PM",38.8954920,-76.4246325,39.46850,562.0,-1.75,0.8,-4.3,9.1,0.0,1.9,7.4,179.4,170.3,17.4,163.3,10.2,26.6,29,2736,167.25,79,61.6,83.2,99.2,13.6,"1 0 0 0"
"6/28/2021, 3:38:00 PM",38.8877025,-76.4272336,37.50000,562.0,4.5,0.8,-5.8,20.0,0.0,6.9,6.5,190.1,170.1,15.6,163.3,9.3,26.3,29,2733,167,79,68.4,80.8,99.2,13.6,"1 0 0 0"
"6/28/2021, 3:33:00 PM",38.8792293,-76.4315798,33.56299,562.0,1,0.3,-6.0,23.8,0.0,12.6,8.1,183.0,159.2,19.2,145.5,12.0,15.4,29,2738,167,79,72.8,84.8,99.2,13.6,"1 0 0 0"
"6/28/2021, 3:28:00 PM",38.8700448,-76.4349749,31.59449,562.0,3,0.5,-1.8,21.9,0.0,13.6,7.7,180.2,158.3,17.6,143.1,10.8,24.7,29,2737,167,79,74.4,83.6,99.2,13.6,"1 0 0 0"
"6/28/2021, 3:23:00 PM",38.8655706,-76.4360614,31.49606,562.0,-17.25,0.5,0.3,328.1,0.0,326.6,5.2,182.7,-145.4,16.7,-132.1,12.8,18.1,29,799,166.75,60,74.8,88.0,99.2,12.7,"1 0 0 0"
"6/28/2021, 3:18:00 PM",38.8601625,-76.4306526,33.56299,562.0,0.25,0.3,-1.5,341.1,0.0,331.0,4.9,174.3,-166.8,9.5,-153.5,4.8,17.2,29,,,,66.8,79.6,99.2,,"1 0 0 0"
"6/28/2021, 3:13:00 PM",38.8544665,-76.4240780,36.02362,562.0,3.5,0.3,-5.0,343.6,0.0,325.9,5.3,173.5,-170.1,15.2,-165.0,10.0,17.9,28.5,,,,83.2,91.6,99.2,,"1 0 0 0"
"6/28/2021, 3:08:00 PM",38.8483505,-76.4175628,40.94488,562.0,2.5,0.3,-2.3,335.9,0.0,313.9,5.0,186.2,-149.7,17.0,-138.5,12.9,19.6,28.5,,,,74.8,80.0,99.2,,"1 0 0 0"
"6/28/2021, 3:03:00 PM",38.8422720,-76.4105792,52.03412,562.0,1.25,0.0,-2.3,338.1,0.0,322.8,5.4,177.4,-160.7,15.3,-150.9,10.3,17.4,28.5,,,,81.2,77.6,99.2,,"1 0 0 0"
"6/28/2021, 2:58:00 PM",38.8359148,-76.4039511,74.90157,562.0,5,0.5,-1.5,329.0,0.0,311.0,6.1,190.9,-138.1,18.9,-122.4,14.9,20.3,28.5,,,,74.4,96.4,99.2,,"1 0 0 0"
"6/28/2021, 2:53:00 PM",38.8298488,-76.3965231,124.93438,562.0,-1.75,-0.3,-4.3,336.6,0.0,321.0,5.3,197.7,-138.9,17.2,-124.2,13.7,19.2,28.5,,,,77.6,83.6,99.2,,"1 0 0 0"
"6/28/2021, 2:48:00 PM",38.8246387,-76.3873505,49.80315,562.0,2,0.3,-2.8,306.7,0.0,292.8,6.6,192.2,-114.5,16.7,-91.3,15.2,19.8,29,,,,78.8,89.6,99.2,,"1 0 0 0"
"6/28/2021, 2:43:00 PM",38.8201344,-76.3763968,24.70472,562.0,1.75,0.5,-0.5,307.9,0.0,297.9,6.3,190.1,-117.8,13.8,-90.8,12.2,20.1,28.5,,,,79.6,90.0,99.2,,"1 0 0 0"
"6/28/2021, 2:38:00 PM",38.8169196,-76.3638135,66.04331,562.0,3.75,1.0,7.5,275.8,0.0,262.2,8.3,190.5,-85.3,15.1,-57.8,17.8,21.0,28.5,,,,97.6,82.4,99.2,,"1 0 0 0"
"6/28/2021, 2:33:00 PM",38.8185078,-76.3489503,34.18635,562.0,2,0.5,8.3,273.4,0.0,259.0,7.9,202.4,-71.0,14.0,-46.8,18.2,19.1,29,,,,99.2,95.2,99.2,,"1 0 0 0"
"6/28/2021, 2:28:00 PM",38.8204716,-76.3361685,28.54331,562.0,0,1.0,0.8,267.6,0.0,259.4,5.0,195.7,-71.9,12.1,-52.7,14.4,17.9,29.5,,,,81.2,80.4,99.2,,"1 0 0 0"
"6/28/2021, 2:23:00 PM",38.8246905,-76.3382776,32.08661,562.0,2.25,0.3,-10.8,162.3,0.0,142.0,4.8,207.0,44.7,11.7,32.2,15.5,18.0,29,,,,62.8,91.6,99.2,,"1 0 0 0"
"6/28/2021, 2:18:00 PM",38.8297408,-76.3432263,43.53675,562.0,2.75,0.0,-12.8,159.2,0.0,140.8,5.4,210.8,51.6,12.7,36.9,16.6,19.5,29,,,,60.4,96.4,99.2,,"1 0 0 0"
"6/28/2021, 2:13:00 PM",38.8348455,-76.3446443,35.53150,562.0,0.5,0.8,3.8,244.4,0.0,234.8,6.2,197.2,-47.2,12.4,-32.0,17.3,18.9,29,,,,94.4,96.8,99.2,,"1 0 0 0"
"6/28/2021, 2:08:00 PM",38.8394816,-76.3354688,38.12336,562.0,0,0.5,6.0,243.7,0.0,235.1,6.4,190.3,-53.4,11.3,-34.6,15.9,18.2,29.5,,,,91.2,93.2,99.2,,"1 0 0 0"
"6/28/2021, 2:03:00 PM",38.8438861,-76.3275400,40.94488,562.0,0,0.3,5.3,235.0,0.0,229.3,6.3,190.3,-44.7,12.2,-29.9,17.3,18.9,29.5,,,,94.0,91.6,99.2,,"1 0 0 0"
"6/28/2021, 1:58:00 PM",38.8496460,-76.3181568,40.45276,562.0,-0.75,0.3,10.5,246.7,0.0,245.4,7.3,203.4,-43.3,11.2,-26.5,17.2,19.9,29.5,,,,97.6,91.6,99.2,,"1 0 0 0"
"6/28/2021, 1:53:00 PM",38.8543305,-76.3068605,37.00787,562.0,1,0.5,6.3,257.6,0.0,247.4,7.3,197.9,-59.7,10.7,-36.2,15.7,17.6,29.5,,,,94.8,95.2,99.2,,"1 0 0 0"
"6/28/2021, 1:48:00 PM",38.8575452,-76.2953521,37.00787,562.0,0.25,0.5,4.5,260.5,0.0,251.2,7.0,201.1,-59.4,9.9,-35.3,14.7,18.6,29.5,,,,92.8,98.0,99.2,,"1 0 0 0"
"6/28/2021, 1:43:00 PM",38.8600580,-76.2827898,28.64173,562.0,1,0.3,5.5,262.7,0.0,255.3,7.2,208.2,-54.5,10.0,-32.1,15.3,17.1,30,,,,96.0,92.0,99.2,,"1 0 0 0"
"6/28/2021, 1:38:00 PM",38.8619043,-76.2713789,26.80446,562.0,0.5,0.5,3.0,277.3,0.0,271.3,6.5,231.7,-45.6,11.1,-29.1,16.3,17.6,29.5,,,,90.0,95.6,99.2,,"1 0 0 0"
"6/28/2021, 1:33:00 PM",38.8679788,-76.2723041,39.46850,562.0,1.75,0.0,-12.3,178.9,0.0,165.5,5.8,231.4,52.5,10.6,34.5,14.8,16.0,29.5,,,,56.8,96.4,99.2,,"1 0 0 0"
"6/28/2021, 1:28:00 PM",38.8743413,-76.2737808,32.34908,562.0,-0.25,0.3,-10.8,182.5,0.0,171.6,4.9,234.3,51.8,9.7,35.0,13.3,15.8,30,,,,61.2,96.4,99.2,,"1 0 0 0"
"6/28/2021, 1:23:00 PM",38.8797255,-76.2752371,28.14961,562.0,6.5,0.3,-5.5,201.9,0.0,184.4,3.6,221.2,19.3,9.3,14.0,12.7,15.8,30,,,,69.6,94.8,99.2,,"1 0 0 0"
"6/28/2021, 1:18:00 PM",38.8798435,-76.2644993,38.25459,562.0,-1,0.8,-0.3,282.7,0.0,274.8,5.5,222.6,-60.1,8.3,-36.8,12.0,13.8,29.5,,,,86.4,88.0,99.2,,"1 0 0 0"
"6/28/2021, 1:13:00 PM",38.8789177,-76.2583555,43.40551,562.0,9.25,0.5,-5.3,233.5,0.0,220.1,2.4,239.0,5.5,9.1,4.4,11.5,14.0,29.5,802,166.75,78,69.6,97.6,99.2,13.6,"1 0 0 0"
"6/28/2021, 1:08:00 PM",38.8762212,-76.2476065,39.10761,562.0,-0.25,1.0,-3.5,320.0,0.0,307.5,7.8,186.6,-133.4,9.3,-78.6,6.9,7.6,29.5,2701,166.75,79,70.0,76.4,99.2,13.9,"1 0 0 0"
"6/28/2021, 1:03:00 PM",38.8677890,-76.2390359,28.64173,562.0,0.25,0.8,-5.3,352.1,0.0,344.2,8.1,196.0,-156.1,9.1,-93.9,3.7,4.9,29.5,2699,166.5,79,69.6,87.6,99.2,13.8,"1 0 0 0"
"6/28/2021, 12:58:00 PM",38.8573202,-76.2346715,31.59449,562.0,0,1.0,-5.0,352.0,0.0,343.0,8.1,192.5,-159.5,9.8,-108.1,3.6,6.9,29.5,2698,166.5,79,69.6,95.2,99.2,13.9,"1 0 0 0"
"6/28/2021, 12:53:00 PM",38.8467518,-76.2303619,32.08661,562.0,0,0.8,-4.8,352.5,0.0,343.8,8.3,207.7,-144.8,10.5,-92.7,6.0,7.2,29.5,2699,166.5,79,69.6,96.4,99.2,13.9,"1 0 0 0"
"6/28/2021, 12:48:00 PM",38.8358957,-76.2299350,15.61680,562.0,4.75,1.0,-5.5,359.7,0.0,348.5,8.0,212.1,-147.6,9.0,-85.6,4.8,11.4,29.5,2699,166.25,79,69.6,79.6,99.2,13.9,"1 0 0 0"
"6/28/2021, 12:43:00 PM",38.8280607,-76.2202061,48.81890,562.0,0,1.0,-4.8,329.6,0.0,318.5,7.9,199.3,-130.3,12.0,-89.1,9.1,11.6,29,2698,166.25,79,69.6,95.2,99.2,13.9,"1 0 0 0"
"6/28/2021, 12:38:00 PM",38.8185787,-76.2128895,27.06693,562.0,0,0.8,-4.5,342.0,0.0,335.2,8.7,219.0,-123.0,11.6,-76.6,10.0,10.1,29.5,2701,166.25,79,69.6,99.2,99.2,13.9,"1 0 0 0"
"6/28/2021, 12:33:00 PM",38.8076797,-76.2085063,40.94488,562.0,0,0.5,-5.5,18.6,0.0,11.1,9.0,209.0,-169.6,13.2,-149.4,4.7,8.8,29,2702,166,79,74.0,79.6,99.2,13.9,"1 0 0 0"
"6/28/2021, 12:28:00 PM",38.7966164,-76.2070021,28.14961,562.0,0,1.0,-4.5,0.1,0.0,346.5,8.2,214.6,-145.5,12.6,-107.3,7.5,13.5,29,2699,166,79,69.6,99.2,99.2,13.9,"1 0 0 0"
"6/28/2021, 12:23:00 PM",38.7894360,-76.2146370,16.73228,562.0,0,0.5,-5.5,62.0,0.0,51.3,6.6,217.3,155.3,11.6,129.3,6.2,13.9,29.5,1962,166,77,69.6,99.2,99.2,13.9,"1 0 0 0"
"6/28/2021, 12:18:00 PM",38.7856520,-76.2203290,6.20079,562.0,25.5,0.3,-5.5,290.2,0.0,0.0,0.1,182.7,,,-106.7,6.0,15.0,29.5,800,165.75,52,69.6,99.2,99.2,13.2,"1 0 0 0"
"6/28/2021, 12:13:00 PM",38.7856616,-76.2202846,5.93832,562.0,25.5,0.5,-4.8,303.0,0.0,100.1,0.2,194.4,,,-107.8,11.8,13.2,29.5,798,165.75,34,69.6,99.2,99.2,13.4,"1 0 0 0"
"6/28/2021, 12:08:00 PM",38.7856422,-76.2203075,6.00394,562.0,25.5,0.3,-5.5,302.8,0.0,169.2,0.2,209.9,,,-90.2,4.1,12.6,29.5,,,,69.6,99.2,99.2,,"1 0 0 0"
"6/28/2021, 12:03:00 PM",38.7856018,-76.2202841,6.06955,562.0,0,0.3,-5.8,302.9,0.0,305.6,0.9,171.4,-131.5,5.2,-123.2,4.6,14.2,29.5,,,,69.6,99.2,99.2,,"1 0 0 0"
"6/28/2021, 11:58:00 AM",38.7856470,-76.2203380,6.00394,562.0,25.5,0.3,-5.5,303.1,0.0,155.8,0.2,219.0,,,-82.0,5.1,16.0,29.5,,,,69.6,99.2,99.6,,"1 0 0 0"
"6/28/2021, 11:53:00 AM",38.7856503,-76.2202934,6.06955,562.0,25.5,0.3,-5.0,303.0,0.0,0.0,0.1,211.2,,,-91.3,9.4,15.2,29.5,,,,69.6,99.6,99.6,,"1 0 0 0"
"6/27/2021, 11:28:00 PM",38.7856665,-76.2203315,5.64304,562.0,0,0.3,-4.8,302.2,0.0,0.0,0.1,206.3,,,-95.9,7.8,13.3,29.5,,,,79.6,99.2,99.6,,"1 0 0 0"
"6/27/2021, 11:23:00 PM",38.7856460,-76.2203255,5.64304,562.0,25.5,0.3,-4.5,302.4,0.0,0.0,0.1,196.0,,,-106.4,8.0,14.0,29.5,,,,79.6,99.2,99.6,,"1 0 0 0"
"6/27/2021, 11:18:00 PM",38.7856667,-76.2203284,5.70866,562.0,25.5,0.3,-4.5,302.4,0.0,159.6,0.0,201.5,,,-100.9,7.5,13.5,29.5,,,,79.6,99.2,99.6,,"1 0 0 0"
"6/27/2021, 11:13:00 PM",38.7856610,-76.2202985,5.70866,562.0,25.5,0.3,-4.5,302.5,0.0,0.0,0.1,191.8,,,-110.7,9.7,16.7,29.5,,,,79.6,99.2,99.6,,"1 0 0 0"
"6/27/2021, 11:08:00 PM",38.7856350,-76.2203493,5.83990,562.0,25.5,0.3,-4.5,302.3,0.0,176.9,0.6,187.6,-114.7,11.6,-114.7,11.6,13.6,29.5,,,,79.6,99.2,99.6,,"1 0 0 0"
"6/27/2021, 11:03:00 PM",38.7856620,-76.2203256,5.83990,562.0,25.5,0.3,-4.5,302.3,0.0,0.0,0.2,189.7,,,-112.6,11.4,15.8,29.5,,,,79.6,99.2,99.6,,"1 0 0 0"
"6/27/2021, 10:58:00 PM",38.7856123,-76.2203155,5.83990,562.0,25.5,0.3,-4.8,302.5,0.0,148.5,0.3,189.9,,,-112.6,7.1,12.3,29.5,,,,69.6,99.2,99.6,,"1 0 0 0"
"6/27/2021, 10:53:00 PM",38.7856493,-76.2203241,5.90551,562.0,25.5,0.3,-5.0,302.3,0.0,0.0,0.1,206.6,,,-95.7,6.1,12.1,29.5,,,,69.6,99.2,99.6,,"1 0 0 0"
"6/27/2021, 10:48:00 PM",38.7856864,-76.2203648,5.90551,562.0,25.5,0.3,-5.0,302.4,0.0,0.0,0.1,184.6,,,-117.8,6.3,14.6,29.5,,,,69.6,99.2,99.6,,"1 0 0 0"
"6/27/2021, 10:43:00 PM",38.7856437,-76.2203253,5.90551,562.0,25.5,0.3,-4.8,302.4,0.0,0.0,0.1,208.8,,,-93.6,7.3,15.9,29.5,,,,69.6,99.2,99.6,,"1 0 0 0"
"6/27/2021, 10:38:00 PM",38.7856650,-76.2203073,5.93832,562.0,25.5,0.3,-4.5,302.6,0.0,0.0,0.1,209.2,,,-93.4,12.8,14.4,29.5,,,,69.6,99.2,99.6,,"1 0 0 0"
"6/27/2021, 10:33:00 PM",38.7856402,-76.2203590,6.00394,562.0,25.5,0.3,-5.0,302.6,0.0,0.0,0.2,207.1,,,-95.5,8.8,14.1,29.5,,,,69.6,99.2,99.6,,"1 0 0 0"
"6/27/2021, 10:28:00 PM",38.7856175,-76.2203201,5.93832,562.0,25.5,0.3,-5.0,302.5,0.0,0.0,0.1,179.7,,,-122.8,7.2,14.7,29.5,,,,69.6,99.2,99.6,,"1 0 0 0"
"6/27/2021, 10:23:00 PM",38.7856680,-76.2203371,6.06955,562.0,25.5,0.3,-5.0,302.7,0.0,0.0,0.0,225.5,,,-77.2,8.5,18.2,29.5,,,,69.6,99.2,99.6,,"1 0 0 0"
"6/27/2021, 10:18:00 PM",38.7856302,-76.2203275,6.06955,562.0,25.5,0.3,-4.8,302.7,0.0,0.0,0.2,207.5,,,-95.2,11.5,13.5,29.5,,,,69.6,99.2,99.6,,"1 0 0 0"
"6/27/2021, 10:12:00 PM",38.7856318,-76.2203140,6.26640,562.0,25.5,0.3,-4.8,302.8,0.0,0.0,0.0,196.8,,,-106.0,7.4,14.9,29.5,,,,69.6,99.2,99.2,,"1 0 0 0"
"6/27/2021, 10:07:00 PM",38.7856278,-76.2203365,6.20079,562.0,25.5,0.3,-5.8,302.4,0.0,0.0,0.3,218.6,,,-83.8,6.9,15.7,29.5,,,,69.6,99.2,99.2,,"1 0 0 0"
"6/27/2021, 10:02:00 PM",38.7856423,-76.2203091,6.20079,562.0,25.5,0.3,-5.5,302.5,0.0,0.0,0.2,193.9,,,-108.6,13.2,14.8,29.5,,,,69.6,99.2,99.2,,"1 0 0 0"
"6/27/2021, 9:57:00 PM",38.7856310,-76.2203153,6.26640,562.0,0,0.3,-5.5,302.3,0.0,95.5,0.3,198.8,,,-103.5,12.3,15.9,29.5,,,,69.6,99.2,99.2,,"1 0 0 0"
"6/27/2021, 9:52:00 PM",38.7856586,-76.2203248,6.20079,562.0,25.5,0.3,-5.5,302.5,0.0,0.0,0.1,176.2,,,-126.3,12.0,16.4,29.5,,,,69.6,99.2,99.2,,"1 0 0 0"
"6/27/2021, 9:47:00 PM",38.7856538,-76.2203176,6.33202,562.0,25.5,0.3,-5.8,302.4,0.0,0.0,0.1,184.8,,,-117.6,5.1,12.5,29.5,,,,69.6,99.2,99.2,,"1 0 0 0"
"6/27/2021, 9:42:00 PM",38.7856328,-76.2203333,6.33202,562.0,25.5,0.3,-5.8,302.1,0.0,202.8,0.3,213.2,,,-88.9,5.2,13.5,29.5,,,,69.6,99.2,99.2,,"1 0 0 0"
"6/27/2021, 9:37:00 PM",38.7856470,-76.2203281,6.39764,562.0,25.5,0.3,-5.8,302.5,0.0,0.0,0.1,179.3,,,-123.2,4.3,20.4,29.5,,,,69.6,99.2,99.2,,"1 0 0 0"
"6/27/2021, 9:32:00 PM",38.7856611,-76.2203418,6.33202,562.0,25.5,0.3,-5.5,302.5,0.0,0.0,0.2,192.7,,,-109.8,11.0,13.8,29.5,,,,69.6,99.2,99.2,,"1 0 0 0"
"6/27/2021, 9:27:00 PM",38.7856447,-76.2203251,6.39764,562.0,25.5,0.3,-5.5,302.5,0.0,0.0,0.2,197.5,,,-105.0,6.6,15.8,29.5,,,,69.6,99.2,99.2,,"1 0 0 0"
"6/27/2021, 9:22:00 PM",38.7856550,-76.2203123,6.49606,562.0,25.5,0.3,-5.5,302.5,0.0,0.0,0.2,219.8,,,-82.7,6.8,15.3,29.5,,,,69.6,99.2,99.2,,"1 0 0 0"
"6/27/2021, 9:17:00 PM",38.7856713,-76.2203033,6.43045,562.0,25.5,0.3,-5.5,302.9,0.0,0.0,0.1,196.9,,,-106.0,10.1,13.6,29.5,,,,69.6,99.2,99.2,,"1 0 0 0"
"6/27/2021, 9:12:00 PM",38.7856518,-76.2203031,6.49606,562.0,0,0.3,-5.5,302.9,0.0,0.0,0.2,196.5,,,-106.4,7.1,18.3,29.5,,,,69.6,99.2,99.2,,"1 0 0 0"
"6/27/2021, 9:07:00 PM",38.7856567,-76.2203248,6.62730,562.0,25.5,0.3,-5.8,302.5,0.0,0.0,0.1,194.2,,,-108.3,5.2,15.9,29.5,,,,69.6,99.2,99.2,,"1 0 0 0"
"6/27/2021, 9:02:00 PM",38.7856390,-76.2203216,6.62730,562.0,25.5,0.3,-5.5,302.9,0.0,0.0,0.1,206.2,,,-96.7,6.7,13.9,29.5,,,,69.6,99.2,99.2,,"1 0 0 0"
"6/27/2021, 8:57:00 PM",38.7856512,-76.2203584,6.62730,562.0,0,0.3,-5.5,302.4,0.0,0.0,0.0,214.4,,,-88.0,5.7,11.8,29.5,,,,69.6,99.2,99.2,,"1 0 0 0"
"6/27/2021, 8:52:00 PM",38.7856688,-76.2203205,6.62730,562.0,25.5,0.3,-5.5,302.3,0.0,0.0,0.2,198.6,,,-103.7,8.5,16.4,29.5,,,,69.6,99.2,99.2,,"1 0 0 0"
"6/27/2021, 8:47:00 PM",38.7856610,-76.2203183,6.75853,562.0,25.5,0.3,-5.5,302.4,0.0,181.5,0.3,184.0,,,-118.4,7.1,15.5,29.5,,,,69.6,99.2,99.2,,"1 0 0 0"
"6/27/2021, 8:42:00 PM",38.7856513,-76.2203211,6.82415,562.0,25.5,0.3,-5.5,302.4,0.0,0.0,0.1,210.0,,,-92.4,10.1,14.2,29.5,,,,69.6,99.2,99.2,,"1 0 0 0"
"6/27/2021, 8:37:00 PM",38.7856411,-76.2203303,6.69291,562.0,0,0.3,-5.3,302.4,0.0,0.0,0.1,194.8,,,-107.6,9.9,18.3,29.5,,,,69.6,99.2,99.2,,"1 0 0 0"
"6/27/2021, 8:32:00 PM",38.7856486,-76.2203321,6.75853,562.0,0,0.3,-5.5,302.6,0.0,0.0,0.2,208.4,,,-94.2,13.6,15.2,29.5,,,,69.6,99.2,99.2,,"1 0 0 0"
"6/27/2021, 8:27:00 PM",38.7856521,-76.2203231,6.75853,562.0,0,0.3,-5.3,302.6,0.0,0.0,0.0,207.6,,,-95.0,11.1,14.9,29.5,,,,69.6,99.2,99.2,,"1 0 0 0"
"6/27/2021, 8:22:00 PM",38.7856480,-76.2203238,6.88976,562.0,25.5,0.3,-5.8,302.4,0.0,0.0,0.2,218.6,,,-83.8,4.6,9.9,29.5,,,,69.6,99.2,99.2,,"1 0 0 0"
"6/27/2021, 8:17:00 PM",38.7856803,-76.2203241,6.82415,562.0,25.5,0.3,-5.5,302.5,0.0,0.0,0.0,197.0,,,-105.5,9.4,11.9,29.5,,,,69.6,99.2,99.2,,"1 0 0 0"
"6/27/2021, 8:12:00 PM",38.7856528,-76.2203170,6.82415,562.0,25.5,0.3,-5.5,302.5,0.0,0.0,0.1,225.3,,,-77.2,7.0,12.8,29.5,,,,69.6,99.2,99.2,,"1 0 0 0"
"6/27/2021, 8:07:00 PM",38.7856503,-76.2203191,6.82415,562.0,25.5,0.3,-5.5,302.6,0.0,0.0,0.1,216.9,,,-85.7,7.7,12.0,29.5,,,,69.6,99.2,99.2,,"1 0 0 0"
"6/27/2021, 8:02:00 PM",38.7856625,-76.2203221,6.82415,562.0,25.5,0.3,-5.5,302.5,0.0,0.0,0.1,209.4,,,-93.1,8.5,13.1,29.5,,,,69.6,99.2,99.2,,"1 0 0 0"
"6/27/2021, 7:57:00 PM",38.7856457,-76.2203203,6.88976,562.0,0,0.3,-5.5,302.9,0.0,0.0,0.1,199.0,,,-103.9,6.2,12.4,29.5,,,,69.6,99.2,99.2,,"1 0 0 0"
"6/27/2021, 7:52:00 PM",38.7856928,-76.2203712,6.88976,562.0,25.5,0.3,-5.5,302.9,0.0,0.0,0.1,184.3,,,-118.6,6.8,13.5,29.5,,,,69.6,99.2,99.2,,"1 0 0 0"
"6/27/2021, 7:47:00 PM",38.7856558,-76.2203178,6.82415,562.0,25.5,0.3,-5.3,302.8,0.0,0.0,0.1,205.7,,,-97.1,11.1,12.5,29.5,,,,69.6,99.2,99.2,,"1 0 0 0"
"6/27/2021, 7:42:00 PM",38.7856412,-76.2203406,6.98819,562.0,0,0.3,-6.5,302.7,0.0,0.0,0.1,217.9,,,-84.8,6.6,15.1,29.5,,,,69.6,99.2,99.2,,"1 0 0 0"
"6/27/2021, 7:37:00 PM",38.7856412,-76.2203185,6.75853,562.0,25.5,0.3,-5.5,302.3,0.0,0.0,0.2,204.3,,,-98.0,5.2,17.4,29.5,,,,69.6,99.2,99.2,,"1 0 0 0"
"6/27/2021, 7:32:00 PM",38.7856952,-76.2203341,6.75853,562.0,25.5,0.3,-5.3,302.7,0.0,0.0,0.1,202.1,,,-100.6,10.3,14.0,29.5,,,,69.6,99.2,99.2,,"1 0 0 0"
"6/27/2021, 7:27:00 PM",38.7856375,-76.2203360,6.82415,562.0,0,0.3,-5.3,302.7,0.0,195.5,0.6,179.6,-123.1,12.3,-123.1,12.3,15.5,29.5,,,,69.6,99.2,99.2,,"1 0 0 0"
"6/27/2021, 7:22:00 PM",38.7856597,-76.2203013,6.75853,562.0,25.5,0.3,-5.0,302.7,0.0,0.0,0.2,178.8,,,-123.9,10.0,14.2,29.5,,,,69.6,99.2,99.2,,"1 0 0 0"
"6/27/2021, 7:17:00 PM",38.7856575,-76.2203250,6.82415,562.0,25.5,0.3,-5.8,302.6,0.0,0.0,0.2,212.7,,,-89.9,7.9,14.7,30,,,,69.6,99.2,99.2,,"1 0 0 0"
"6/27/2021, 7:12:00 PM",38.7856578,-76.2203110,6.88976,562.0,0,0.3,-5.5,302.4,0.0,166.4,0.5,193.9,,,-108.5,12.3,16.6,30,,,,71.2,99.2,99.2,,"1 0 0 0"
"6/27/2021, 7:07:00 PM",38.7856388,-76.2203185,6.82415,562.0,25.5,0.3,-6.0,302.5,0.0,0.0,0.2,181.6,,,-120.9,10.1,14.8,30,,,,69.6,99.2,99.2,,"1 0 0 0"
"6/27/2021, 7:02:00 PM",38.7856125,-76.2203191,6.69291,562.0,25.5,0.3,-5.8,302.4,0.0,0.0,0.0,196.7,,,-105.7,12.8,17.0,30,,,,69.6,99.2,99.2,,"1 0 0 0"
"6/27/2021, 6:57:00 PM",38.7856717,-76.2203416,6.82415,562.0,25.5,0.3,-4.8,302.2,0.0,0.0,0.0,187.2,,,-115.0,11.8,17.9,30,,,,74.0,99.2,99.2,,"1 0 0 0"
"6/27/2021, 6:52:00 PM",38.7856518,-76.2203145,6.82415,562.0,0,0.3,-5.5,302.0,0.0,0.0,0.2,182.7,,,-119.3,8.7,16.4,30,,,,70.0,99.2,99.2,,"1 0 0 0"
"6/27/2021, 6:47:00 PM",38.7856558,-76.2203235,6.82415,562.0,25.5,0.3,-5.3,302.1,0.0,99.4,0.3,187.3,,,-114.8,12.7,17.6,30,,,,69.6,99.2,99.2,,"1 0 0 0"
"6/27/2021, 6:42:00 PM",38.7857253,-76.2203059,6.69291,562.0,25.5,0.3,-5.3,302.2,0.0,4.7,0.4,173.1,,,-129.1,8.3,16.1,30,,,,69.6,99.2,99.2,,"1 0 0 0"
"6/27/2021, 6:37:00 PM",38.7857280,-76.2203904,6.75853,562.0,25.5,0.3,-5.3,302.2,0.0,0.0,0.0,187.3,,,-114.9,13.3,15.9,30,,,,72.8,99.2,99.2,,"1 0 0 0"
"6/27/2021, 6:32:00 PM",38.7857248,-76.2203248,6.75853,562.0,25.5,0.3,-5.5,302.1,0.0,0.0,0.1,187.8,,,-114.3,7.4,14.3,30,,,,71.2,99.2,99.2,,"1 0 0 0"
"6/27/2021, 6:27:00 PM",38.7857180,-76.2203300,6.69291,562.0,25.5,0.3,-5.5,302.0,0.0,0.0,0.1,176.3,,,-125.7,11.2,17.2,30,,,,69.6,99.2,99.2,,"1 0 0 0"
"6/27/2021, 6:22:00 PM",38.7857175,-76.2203016,6.82415,562.0,25.5,0.3,-5.5,302.1,0.0,176.7,0.2,192.8,,,-109.3,7.3,13.1,30,,,,71.2,99.2,99.2,,"1 0 0 0"
"6/27/2021, 6:17:00 PM",38.7856536,-76.2203233,6.56168,562.0,25.5,0.3,-5.5,302.1,0.0,0.0,0.0,212.7,,,-89.4,8.7,17.2,30,,,,69.6,99.2,99.2,,"1 0 0 0"
"6/27/2021, 6:12:00 PM",38.7856930,-76.2203216,6.75853,562.0,25.5,0.3,-5.5,302.0,0.0,0.0,0.2,190.4,,,-111.6,8.0,12.0,30,,,,69.2,99.2,99.2,,"1 0 0 0"
"6/27/2021, 6:07:00 PM",38.7856877,-76.2203076,6.62730,562.0,25.5,0.3,-5.3,302.3,0.0,0.0,0.1,181.2,,,-121.1,8.1,15.4,30,,,,69.2,99.2,99.2,,"1 0 0 0"
"6/27/2021, 6:02:00 PM",38.7856920,-76.2203164,6.56168,562.0,0,0.3,-5.8,301.9,0.0,0.0,0.1,192.8,,,-109.1,7.9,17.7,30,,,,71.2,99.2,99.2,,"1 0 0 0"
"6/27/2021, 5:57:00 PM",38.7856553,-76.2203223,6.56168,562.0,25.5,0.3,-5.5,302.1,0.0,0.0,0.0,190.5,,,-111.6,10.1,16.4,30,,,,69.6,99.2,99.2,,"1 0 0 0"
"6/27/2021, 5:52:00 PM",38.7856802,-76.2203193,6.56168,562.0,25.5,0.3,-5.5,302.1,0.0,0.0,0.1,198.6,,,-103.5,6.9,19.3,30,,,,69.6,99.2,99.2,,"1 0 0 0"
"6/27/2021, 5:47:00 PM",38.7857119,-76.2203080,6.56168,562.0,25.5,0.3,-5.5,302.1,0.0,44.9,0.6,197.6,-104.5,10.6,-104.5,10.6,15.1,29.5,,,,71.6,99.2,99.2,,"1 0 0 0"
"6/27/2021, 5:42:00 PM",38.7856640,-76.2203520,6.49606,562.0,25.5,0.3,-5.5,302.1,0.0,0.0,0.0,170.6,,,-131.5,6.5,17.0,29.5,,,,69.2,99.2,99.2,,"1 0 0 0"
"6/27/2021, 5:37:00 PM",38.7856793,-76.2203180,6.43045,562.0,25.5,0.3,-5.5,302.4,0.0,0.0,0.1,164.1,,,-138.3,8.7,15.3,29.5,,,,69.2,99.2,99.2,,"1 0 0 0"
"6/27/2021, 5:32:00 PM",38.7856660,-76.2203108,6.39764,562.0,25.5,0.3,-5.0,302.6,0.0,0.0,0.1,165.6,,,-137.0,11.6,18.7,30,,,,69.2,99.2,99.2,,"1 0 0 0"
"6/27/2021, 5:27:00 PM",38.7856703,-76.2203213,6.26640,562.0,25.5,0.3,-5.8,301.9,0.0,104.4,0.3,174.4,,,-127.5,7.9,19.9,30,,,,69.2,99.2,99.2,,"1 0 0 0"
"6/27/2021, 5:22:00 PM",38.7856590,-76.2203168,6.33202,562.0,25.5,0.3,-5.8,301.9,0.0,0.0,0.1,186.9,,,-115.0,8.2,16.5,30,,,,69.2,99.2,99.2,,"1 0 0 0"
"6/27/2021, 5:17:00 PM",38.7856742,-76.2203181,6.26640,562.0,25.5,0.3,-5.5,301.9,0.0,0.0,0.0,174.1,,,-127.8,8.1,16.7,30,,,,69.2,99.2,99.2,,"1 0 0 0"
"6/27/2021, 5:12:00 PM",38.7856301,-76.2203501,6.33202,562.0,25.5,0.3,-6.0,302.1,0.0,0.0,0.1,172.6,,,-129.5,4.7,15.1,29.5,,,,69.2,99.2,99.2,,"1 0 0 0"
"6/27/2021, 5:07:00 PM",38.7856928,-76.2203776,6.20079,562.0,25.5,0.3,-5.5,302.1,0.0,0.0,0.0,207.4,,,-94.7,7.9,18.7,30,,,,69.2,99.2,99.2,,"1 0 0 0"
"6/27/2021, 5:02:00 PM",38.7856598,-76.2203050,6.06955,562.0,25.5,0.3,-6.0,302.1,0.0,0.0,0.2,174.1,,,-128.0,4.2,17.7,29.5,,,,69.2,99.2,99.2,,"1 0 0 0"
"6/27/2021, 4:57:00 PM",38.7856833,-76.2203104,6.06955,562.0,25,0.3,-5.3,302.2,0.0,0.0,0.2,195.7,,,-106.5,10.5,14.4,29.5,,,,69.2,99.2,99.2,,"1 0 0 0"
"6/27/2021, 4:52:00 PM",38.7856883,-76.2203096,6.06955,562.0,25.25,0.5,-5.3,302.2,0.0,0.0,0.1,198.1,,,-104.1,8.5,13.7,29.5,,,,69.2,99.2,99.2,,"1 0 0 0"
"6/27/2021, 4:47:00 PM",38.7856565,-76.2203138,6.13517,562.0,0,0.5,-5.5,301.9,0.0,0.0,0.1,175.2,,,-126.7,7.7,16.3,29.5,,,,69.2,99.2,99.2,,"1 0 0 0"
"6/27/2021, 4:42:00 PM",38.7856782,-76.2203081,6.06955,562.0,25.75,0.5,-5.5,302.7,0.0,0.0,0.1,181.2,,,-121.5,11.8,18.1,29.5,,,,69.2,99.2,99.2,,"1 0 0 0"
"6/27/2021, 4:37:00 PM",38.7856992,-76.2203520,6.00394,562.0,25.75,0.5,-5.3,302.3,0.0,0.0,0.1,195.3,,,-107.0,15.8,17.4,29.5,,,,69.2,99.2,99.2,,"1 0 0 0"
"6/27/2021, 4:32:00 PM",38.7856495,-76.2203223,6.06955,562.0,26,0.5,-5.8,302.5,0.0,0.0,0.2,174.8,,,-127.7,10.7,16.6,30,,,,69.2,99.2,99.2,,"1 0 0 0"
"6/27/2021, 4:27:00 PM",38.7856363,-76.2203231,6.00394,562.0,26,0.3,-5.5,302.3,0.0,0.0,0.1,186.9,,,-115.4,9.7,16.3,30,,,,69.2,99.2,99.2,,"1 0 0 0"
"6/27/2021, 4:22:00 PM",38.7856645,-76.2203133,5.90551,562.0,25.5,0.5,-5.8,302.4,0.0,0.0,0.2,182.3,,,-120.1,10.8,13.9,29.5,,,,69.2,99.2,99.2,,"1 0 0 0"
"6/27/2021, 4:17:00 PM",38.7857120,-76.2203456,5.93832,562.0,25.5,0.5,-6.0,301.9,0.0,0.0,0.0,189.4,,,-112.5,8.0,13.7,29.5,,,,69.2,99.2,99.2,,"1 0 0 0"
"6/27/2021, 4:12:00 PM",38.7856538,-76.2203240,5.93832,562.0,26,0.5,-5.0,301.3,0.0,0.0,0.1,235.1,,,-66.2,10.7,13.3,29.5,,,,70.4,99.2,99.2,,"1 0 0 0"
"6/27/2021, 4:07:00 PM",38.7856902,-76.2204583,6.69291,562.0,-1.5,0.3,-5.0,293.1,0.0,52.9,0.4,223.9,,,-69.2,5.6,17.4,29.5,797,165.75,77,70.8,99.2,99.2,13.0,"1 0 0 0"
"6/27/2021, 4:02:00 PM",38.7877927,-76.2179716,11.25328,562.0,0,0.3,-5.0,234.4,0.0,223.4,4.0,235.4,1.0,15.5,1.0,15.5,20.6,29.5,1211,165.5,77,70.8,99.2,99.2,13.6,"1 0 0 0"
"6/27/2021, 3:57:00 PM",38.7915225,-76.2101668,17.81496,562.0,0,0.5,-4.3,251.5,0.0,241.5,6.2,202.2,-49.3,18.3,-49.3,18.3,25.3,29.5,2213,165.5,78,78.4,99.2,99.2,13.7,"1 0 0 0"
"6/27/2021, 3:52:00 PM",38.7986955,-76.2078383,29.52756,562.0,0,0.3,-6.5,170.1,0.0,157.5,7.7,189.9,19.8,19.9,19.8,19.9,26.2,29.5,2686,165.5,79,69.2,99.2,99.2,13.6,"1 0 0 0"
"6/27/2021, 3:47:00 PM",38.8086723,-76.2091161,28.64173,562.0,0,0.5,-4.8,194.2,0.0,183.7,7.0,188.4,-5.8,19.6,-5.8,19.6,24.0,29,2684,165.25,79,69.2,99.2,99.2,13.6,"1 0 0 0"
"6/27/2021, 3:42:00 PM",38.8181460,-76.2136490,27.16535,562.0,0,0.3,-7.3,162.2,0.0,147.9,7.7,187.6,25.4,22.2,25.4,22.2,24.0,29,2685,165.25,79,71.2,99.2,99.2,13.6,"1 0 0 0"
"6/27/2021, 3:37:00 PM",38.8271520,-76.2206080,45.76772,562.0,0,0.3,-7.5,145.6,0.0,130.0,7.6,197.2,51.6,22.4,51.6,22.4,23.8,29,2685,165.25,79,69.2,99.2,99.2,13.6,"1 0 0 0"
"6/27/2021, 3:32:00 PM",38.8332841,-76.2310038,15.48556,562.0,1,0.3,-8.0,164.6,0.0,152.8,7.4,188.8,24.2,21.1,24.2,21.1,26.9,29,2686,165,79,69.2,99.2,99.2,13.6,"1 0 0 0"
"6/27/2021, 3:27:00 PM",38.8430681,-76.2297518,21.52231,562.0,0.25,0.5,-6.0,187.6,0.0,174.2,7.1,195.7,8.1,22.7,8.1,22.7,26.3,29,2685,165,79,72.0,99.2,99.2,13.6,"1 0 0 0"
"6/27/2021, 3:22:00 PM",38.8525288,-76.2330970,31.59449,562.0,0.25,0.3,-6.8,165.9,0.0,149.7,6.9,190.7,24.8,19.0,24.8,19.0,24.1,29,2567,165,79,77.6,99.2,99.2,13.6,"1 0 0 0"
"6/27/2021, 3:17:00 PM",38.8612192,-76.2388480,29.62598,562.0,-0.5,0.5,-6.5,166.2,0.0,150.9,6.7,194.5,28.3,22.2,28.3,22.2,25.7,29,2570,164.75,79,71.6,99.2,99.2,13.6,"1 0 0 0"
"6/27/2021, 3:12:00 PM",38.8701056,-76.2444608,40.45276,562.0,0,0.8,-5.5,166.8,0.0,153.9,7.3,186.6,19.8,21.6,19.8,21.6,24.7,29,2569,164.75,79,75.2,99.2,99.2,13.6,"1 0 0 0"
"6/27/2021, 3:07:00 PM",38.8774784,-76.2506304,38.97638,562.0,1.75,0.5,-4.3,186.3,0.0,177.7,0.8,186.7,0.4,16.1,0.4,16.1,19.1,29,797,164.75,76,78.0,99.2,99.2,13.1,"1 0 0 0"
"6/27/2021, 3:02:00 PM",38.8768575,-76.2542678,41.83071,562.0,-1,0.5,-8.0,54.3,0.0,41.6,6.6,160.7,106.4,8.8,106.4,8.8,15.5,28.5,801,164.5,59,71.2,99.2,99.2,12.7,"1 0 0 0"
"6/27/2021, 2:57:00 PM",38.8704616,-76.2620103,32.08661,562.0,-1.25,0.3,-6.5,55.5,0.0,43.3,6.6,180.2,124.7,12.3,124.7,12.3,17.4,29,,,,72.8,99.2,99.2,,"1 0 0 0"
"6/27/2021, 2:52:00 PM",38.8650368,-76.2719063,36.51575,562.0,-0.5,0.3,-7.0,60.2,0.0,50.6,5.9,192.2,132.0,9.6,132.0,9.6,13.5,28.5,,,,70.8,99.2,99.2,,"1 0 0 0"
"6/27/2021, 2:47:00 PM",38.8600788,-76.2798966,44.88189,562.0,-1.25,0.3,-8.3,62.6,0.0,52.7,6.3,176.4,113.8,10.5,113.8,10.5,16.9,28.5,,,,69.2,99.2,99.2,,"1 0 0 0"
"6/27/2021, 2:42:00 PM",38.8551780,-76.2886848,41.92913,562.0,0,0.3,-7.8,66.8,0.0,55.5,6.9,175.9,109.1,12.5,109.1,12.5,16.4,28.5,,,,69.2,99.2,99.2,,"1 0 0 0"
"6/27/2021, 2:37:00 PM",38.8498818,-76.2987080,32.08661,562.0,-1.5,0.3,-8.3,69.2,0.0,55.9,6.3,181.6,112.4,9.6,112.4,9.6,17.6,28.5,,,,72.0,99.2,99.2,,"1 0 0 0"
"6/27/2021, 2:32:00 PM",38.8448576,-76.3090560,21.75197,562.0,-1.25,0.3,-8.8,70.6,0.0,62.2,8.0,165.5,94.9,17.7,94.9,17.7,20.3,28,,,,61.6,99.2,99.2,,"1 0 0 0"
"6/27/2021, 2:27:00 PM",38.8394304,-76.3203328,31.59449,562.0,-2.5,0.0,-12.3,71.3,0.0,60.0,8.0,161.3,90.0,14.7,90.0,14.7,21.0,28,,,,65.2,99.2,99.2,,"1 0 0 0"
"6/27/2021, 2:22:00 PM",38.8335238,-76.3319048,35.79396,562.0,-1.25,0.3,-10.8,58.3,0.0,44.0,7.4,155.6,97.3,13.1,97.3,13.1,16.8,28,,,,66.8,99.2,99.2,,"1 0 0 0"
"6/27/2021, 2:17:00 PM",38.8283362,-76.3416870,39.46850,562.0,-0.25,0.5,-7.3,62.1,0.0,54.3,6.4,172.1,110.0,12.8,110.0,12.8,16.8,28,,,,71.2,99.2,99.2,,"1 0 0 0"
"6/27/2021, 2:12:00 PM",38.8235616,-76.3510400,49.80315,562.0,-0.25,0.0,-10.3,67.8,0.0,48.7,6.4,174.1,106.3,12.3,106.3,12.3,19.3,28,,,,70.8,99.2,99.2,,"1 0 0 0"
"6/27/2021, 2:07:00 PM",38.8183227,-76.3614711,67.51969,562.0,-3,0.3,-9.0,69.0,0.0,60.0,7.7,166.1,97.1,19.0,97.1,19.0,24.9,28,,,,62.8,99.2,99.2,,"1 0 0 0"
"6/27/2021, 2:02:00 PM",38.8141271,-76.3747280,73.06430,562.0,-1.75,-0.8,-21.8,112.6,0.0,99.9,8.9,169.7,57.1,22.5,57.1,22.5,26.3,27.5,,,,50.0,99.2,99.2,,"1 0 0 0"
"6/27/2021, 1:57:00 PM",38.8159898,-76.3900736,54.13386,562.0,-0.25,-1.3,-21.0,110.4,0.0,98.2,9.0,167.0,56.6,21.1,56.6,21.1,27.1,27.5,,,,53.6,99.2,99.2,,"1 0 0 0"
"6/27/2021, 1:52:00 PM",38.8189684,-76.4051795,85.23622,562.0,-2.5,-0.8,-21.5,125.0,0.0,116.6,8.3,175.2,50.2,24.9,50.2,24.9,27.9,28,,,,50.8,99.2,99.2,,"1 0 0 0"
"6/27/2021, 1:47:00 PM",38.8230048,-76.4183040,51.77165,562.0,-2,-0.5,-21.5,125.7,0.0,110.7,7.8,167.8,42.1,21.5,42.1,21.5,26.8,27.5,,,,47.2,99.2,99.2,,"1 0 0 0"
"6/27/2021, 1:42:00 PM",38.8270560,-76.4305856,38.74672,562.0,-5.25,-1.0,-22.5,128.9,0.0,111.0,7.7,171.4,42.5,23.3,42.5,23.3,27.4,28,,,,48.0,99.2,99.2,,"1 0 0 0"
"6/27/2021, 1:37:00 PM",38.8308658,-76.4415795,32.57874,562.0,4.75,0.3,-5.8,155.6,0.0,153.0,4.2,179.9,24.3,22.7,24.3,22.7,27.6,28,,,,81.2,99.2,99.2,,"1 0 0 0"
"6/27/2021, 1:32:00 PM",38.8387389,-76.4320469,34.67848,562.0,1,-0.5,10.0,232.6,0.0,227.5,7.9,200.9,-31.7,19.8,-31.7,19.8,25.4,28,,,,99.2,99.2,99.2,,"1 0 0 0"
"6/27/2021, 1:27:00 PM",38.8464672,-76.4223744,37.76247,562.0,1,0.3,8.5,230.9,0.0,222.2,7.4,186.5,-44.4,22.7,-44.4,22.7,27.6,28,,,,99.2,99.2,99.2,,"1 0 0 0"
"6/27/2021, 1:22:00 PM",38.8540916,-76.4135528,45.37402,562.0,1,0.5,7.0,228.6,0.0,216.9,7.6,197.2,-31.4,23.4,-31.4,23.4,24.8,28,,,,99.2,99.2,99.2,,"1 0 0 0"
"6/27/2021, 1:17:00 PM",38.8606313,-76.4055945,82.28346,562.0,0.25,1.3,-0.3,240.1,0.0,233.6,4.3,189.4,-50.7,19.1,-50.7,19.1,21.3,28,,,,88.0,99.2,99.2,,"1 0 0 0"
"6/27/2021, 1:12:00 PM",38.8641351,-76.3999743,93.37270,562.0,0.75,1.0,0.8,236.7,0.0,222.4,5.0,184.6,-52.1,20.6,-52.1,20.6,26.6,28,0,164.5,77,91.6,99.2,99.2,13.1,"1 0 0 0"
"6/27/2021, 1:07:00 PM",38.8703498,-76.4002345,92.25722,562.0,0.5,0.8,-4.8,175.2,0.0,165.4,7.7,180.5,5.3,22.7,5.3,22.7,26.8,28,2724,164.5,79,71.2,99.2,99.2,13.8,"1 0 0 0"
"6/27/2021, 1:01:00 PM",38.8827475,-76.4040725,68.76640,562.0,0,0.8,-6.3,185.6,0.0,175.8,8.0,186.7,1.1,23.6,1.1,23.6,26.6,28,2728,164.5,79,72.4,99.2,99.2,13.9,"1 0 0 0"
"6/27/2021, 12:56:00 PM",38.8926720,-76.4067840,50.19685,562.0,0,1.0,-6.0,166.1,0.0,155.6,7.6,180.4,14.3,22.3,14.3,22.3,24.6,28,2725,164.25,79,76.0,99.2,99.2,13.8,"1 0 0 0"
"6/27/2021, 12:51:00 PM",38.9025805,-76.4123566,42.42126,562.0,0,1.0,-6.3,176.9,0.0,165.7,8.1,175.4,-1.5,20.0,-1.5,20.0,24.9,27.5,2724,164.25,79,74.8,99.2,99.2,13.8,"1 0 0 0"
"6/27/2021, 12:46:00 PM",38.9118833,-76.4185493,38.48425,562.0,0,1.0,-5.3,156.0,0.0,150.0,7.7,178.1,22.1,22.9,22.1,22.9,24.4,27.5,2724,164.25,79,72.8,99.2,99.2,13.9,"1 0 0 0"
"6/27/2021, 12:41:00 PM",38.9210912,-76.4251904,33.07087,562.0,0,1.0,-6.5,170.5,0.0,164.6,7.9,179.6,9.1,23.2,9.1,23.2,27.2,27.5,2723,164,79,72.0,99.2,99.2,13.8,"1 0 0 0"
"6/27/2021, 12:36:00 PM",38.9314848,-76.4302080,29.13386,562.0,0,0.8,-5.8,165.6,0.0,155.4,7.7,177.7,12.1,23.3,12.1,23.3,27.4,27.5,2725,164,79,78.4,99.2,99.2,13.8,"1 0 0 0"
"6/27/2021, 12:31:00 PM",38.9417597,-76.4362395,21.32546,562.0,0,1.0,-6.5,166.7,0.0,152.9,7.9,181.6,14.9,23.0,14.9,23.0,26.5,27.5,2724,164,79,79.6,99.2,99.2,13.9,"1 0 0 0"
"6/27/2021, 12:25:00 PM",38.9532750,-76.4438235,21.09580,562.0,1.5,1.0,-7.3,156.1,0.0,142.6,8.0,173.5,17.4,23.4,17.4,23.4,26.4,28,2725,163.75,79,76.0,99.2,99.2,13.9,"1 0 0 0"
"6/27/2021, 12:20:00 PM",38.9609701,-76.4529861,19.78346,562.0,0.75,1.0,-6.3,143.8,0.0,127.6,7.1,173.1,29.3,22.6,29.3,22.6,26.0,28,2729,163.75,79,74.4,99.2,99.2,14.0,"1 0 0 0"
"6/27/2021, 12:15:00 PM",38.9651456,-76.4646784,10.99081,562.0,-0.25,0.5,-9.8,129.9,0.0,121.1,7.3,171.3,41.4,21.6,41.4,21.6,24.4,28.5,2729,163.75,79,76.8,99.2,99.2,14.0,"1 0 0 0"
"6/27/2021, 12:10:00 PM",38.9681664,-76.4749824,10.99081,562.0,0,0.5,-7.3,76.9,0.0,65.8,5.4,148.9,72.0,16.1,72.0,16.1,16.4,29,1848,163.5,68,78.4,99.2,99.2,13.9,"1 0 0 0"
"6/27/2021, 12:05:00 PM",38.9666981,-76.4796901,9.38320,562.0,0,0.5,-5.0,250.2,0.0,329.4,0.3,197.1,,,-53.1,10.7,12.1,29.5,801,163.5,46,79.6,99.2,99.2,13.9,"1 0 0 0"
"6/27/2021, 12:00:00 PM",38.9666848,-76.4797440,9.44882,562.0,0,0.3,-5.8,246.7,0.0,0.0,0.0,191.3,,,-55.4,7.3,13.1,29.5,,,,79.6,99.2,99.2,,"1 0 0 0"
"6/27/2021, 11:55:00 AM",38.9666920,-76.4796776,9.38320,562.0,0,0.3,-5.3,244.6,0.0,0.0,0.1,209.3,,,-35.3,8.6,12.5,29.5,,,,79.6,99.2,99.2,,"1 0 0 0"
"6/27/2021, 11:50:00 AM",38.9666840,-76.4796831,9.51444,562.0,0,0.3,-5.0,243.1,0.0,0.0,0.1,194.9,,,-48.2,4.2,10.9,29,,,,79.6,99.2,99.2,,"1 0 0 0"
"6/27/2021, 11:45:00 AM",38.9667010,-76.4796938,9.64567,562.0,0,0.3,-5.5,244.0,0.0,142.2,0.4,221.5,,,-22.5,8.6,12.9,29.5,,,,79.6,99.2,99.2,,"1 0 0 0"
"6/27/2021, 11:40:00 AM",38.9666720,-76.4797440,9.58005,562.0,0,0.5,-5.5,243.6,0.0,,0.0,215.7,,,-27.9,8.2,12.8,29.5,,,,79.6,99.2,99.2,,"1 0 0 0"
"6/20/2021, 5:19:00 PM",38.9667123,-76.4796841,8.79265,562.0,0,0.5,-4.8,245.2,0.0,34.2,0.2,184.0,,,-60.6,15.5,19.8,29.5,,,,79.6,45.6,99.2,,"1 0 0 0"
"6/20/2021, 5:14:00 PM",38.9667331,-76.4796886,8.79265,562.0,11,0.3,-4.8,244.7,0.0,0.0,0.1,186.6,,,-57.6,8.9,16.3,29,0,163.5,77,79.6,45.6,99.2,13.1,"1 0 0 0"
"6/20/2021, 5:09:00 PM",38.9669920,-76.4789376,9.21916,562.0,4.75,0.3,-4.8,231.5,0.0,223.7,3.8,153.5,-78.0,2.5,-29.6,5.0,20.6,28.5,1034,163.25,78,79.6,45.6,99.2,13.5,"1 0 0 0"
"6/20/2021, 5:04:00 PM",38.9667795,-76.4694958,13.81234,562.0,2.25,0.3,-1.5,295.3,0.0,287.1,5.2,185.5,-109.8,18.5,-93.6,17.4,25.4,27.5,799,163.25,78,81.2,46.0,99.2,13.4,"1 0 0 0"
"6/20/2021, 4:59:00 PM",38.9664448,-76.4570304,21.32546,562.0,3,1.0,-0.3,274.2,0.0,264.7,8.1,176.0,-98.2,15.9,-69.8,16.8,25.1,27.5,2691,163.25,79,86.4,42.0,99.2,13.6,"1 0 0 0"
"6/20/2021, 4:54:00 PM",38.9695154,-76.4448868,10.82677,562.0,3.5,1.3,-3.8,225.4,0.0,222.3,7.4,179.3,-46.1,14.6,-31.0,20.4,24.3,27.5,2694,163,79,86.4,40.8,99.2,13.6,"1 0 0 0"
"6/20/2021, 4:49:00 PM",38.9781968,-76.4384775,16.53543,562.0,-0.25,1.0,-5.8,219.7,0.0,206.9,7.6,180.2,-39.5,16.2,-27.2,22.5,24.2,27.5,2691,163,79,82.8,48.8,99.2,13.6,"1 0 0 0"
"6/20/2021, 4:44:00 PM",38.9881046,-76.4387833,18.43832,562.0,-1.25,0.5,-3.8,207.3,0.0,198.0,7.2,183.4,-23.9,12.8,-15.4,19.6,21.1,28,2694,163,79,81.6,41.2,99.2,13.6,"1 0 0 0"
"6/20/2021, 4:39:00 PM",38.9932800,-76.4287744,11.54856,562.0,-1.5,0.5,-4.0,261.0,0.0,252.9,4.8,180.0,-81.0,16.9,-66.1,18.3,18.6,29,1569,162.75,65,83.2,44.8,99.2,13.6,"1 0 0 0"
"6/20/2021, 4:34:00 PM",38.9931455,-76.4277755,10.43307,562.0,0.25,0.5,-5.3,176.6,0.0,282.1,0.3,169.6,,,-6.9,12.4,18.0,29,,,,81.2,46.0,99.2,,"1 0 0 0"
"6/20/2021, 4:29:00 PM",38.9931491,-76.4277266,10.43307,562.0,0.25,0.5,-5.0,180.8,0.0,272.3,0.2,207.4,,,26.2,11.1,16.1,29,,,,82.8,46.0,99.2,,"1 0 0 0"
"6/20/2021, 4:24:00 PM",38.9931655,-76.4277120,10.82677,562.0,0.25,0.3,-5.5,182.1,0.0,173.2,0.2,178.6,,,-3.5,10.3,16.8,29,,,,84.8,46.8,99.2,,"1 0 0 0"
"6/20/2021, 4:19:00 PM",38.9931606,-76.4277261,10.82677,562.0,0.25,0.5,-5.3,169.7,0.0,0.0,0.2,174.1,,,4.4,10.9,18.0,29,,,,79.6,43.2,99.2,,"1 0 0 0"
"6/20/2021, 4:14:00 PM",38.9931483,-76.4277135,10.43307,562.0,0,0.3,-5.3,186.7,0.0,231.4,0.3,182.9,,,-3.8,12.5,18.6,29,,,,82.8,48.0,99.2,,"1 0 0 0"
"6/20/2021, 4:09:00 PM",38.9931605,-76.4277205,10.76115,562.0,0.75,0.3,-5.8,186.5,0.0,144.2,0.3,178.1,,,-8.3,13.8,18.6,29,,,,81.6,45.6,99.2,,"1 0 0 0"
"6/20/2021, 4:04:00 PM",38.9931523,-76.4277050,10.99081,562.0,0,0.5,-6.0,178.8,0.0,136.7,0.4,174.4,,,-4.3,13.2,17.4,29,,,,83.2,46.0,99.2,,"1 0 0 0"
"6/20/2021, 3:59:00 PM",38.9931607,-76.4277138,10.85958,562.0,0,0.3,-5.5,175.5,0.0,104.5,0.3,178.9,,,3.4,11.7,16.3,29,,,,82.8,48.4,99.2,,"1 0 0 0"
"6/20/2021, 3:54:00 PM",38.9931565,-76.4276891,10.92520,562.0,0,-0.3,-6.5,172.6,0.0,358.5,0.3,197.5,,,24.2,9.8,14.1,28.5,,,,81.2,48.0,99.2,,"1 0 0 0"
"6/20/2021, 3:49:00 PM",38.9931072,-76.4277056,10.82677,562.0,-0.75,0.5,-5.0,180.7,0.0,0.0,0.2,174.5,,,-6.1,11.8,16.4,29,,,,81.2,49.6,99.2,,"1 0 0 0"
"6/20/2021, 3:44:00 PM",38.9931675,-76.4276670,10.99081,562.0,0,0.3,-5.5,192.8,0.0,33.4,0.3,179.4,,,-13.0,9.6,15.8,28.5,,,,79.6,50.0,99.2,,"1 0 0 0"
"6/20/2021, 3:39:00 PM",38.9931677,-76.4276545,10.99081,562.0,0,0.3,-4.8,194.6,0.0,34.7,0.4,194.4,,,-0.2,11.6,15.2,28.5,,,,84.8,49.2,99.2,,"1 0 0 0"
"6/20/2021, 3:34:00 PM",38.9930784,-76.4277440,10.56430,562.0,0,0.3,-6.0,167.5,0.0,0.0,0.1,190.3,,,22.7,12.4,17.0,28.5,,,,81.2,48.8,99.2,,"1 0 0 0"
"6/20/2021, 3:29:00 PM",38.9931413,-76.4277149,10.69554,562.0,0,0.5,-5.0,199.3,0.0,236.7,0.4,176.7,,,-21.9,11.6,16.8,28.5,,,,81.6,49.6,99.2,,"1 0 0 0"
"6/20/2021, 3:24:00 PM",38.9931450,-76.4276683,10.85958,562.0,0,0.0,-5.3,195.8,0.0,0.0,0.2,176.0,,,-19.5,10.0,16.1,28.5,,,,86.4,51.2,99.2,,"1 0 0 0"
"6/20/2021, 3:19:00 PM",38.9930656,-76.4277184,10.82677,562.0,0,0.3,-5.0,196.5,0.0,283.5,0.3,181.0,,,-15.1,11.2,15.0,28.5,,,,86.4,50.8,99.2,,"1 0 0 0"
"6/20/2021, 3:14:00 PM",38.9931520,-76.4276863,10.99081,562.0,0,0.3,-5.5,190.1,0.0,186.0,0.5,191.5,,,1.4,8.5,14.3,28.5,,,,81.6,50.0,99.2,,"1 0 0 0"
"6/20/2021, 3:09:00 PM",38.9930880,-76.4276736,11.05643,562.0,0,0.3,-5.3,202.9,0.0,0.0,0.1,186.6,,,-16.2,11.9,15.9,28.5,,,,82.8,51.2,99.2,,"1 0 0 0"
"6/20/2021, 3:04:00 PM",38.9931652,-76.4276108,11.18766,562.0,0.25,0.3,-5.3,202.6,0.0,0.0,0.1,186.4,,,-16.1,12.4,16.0,28,,,,83.2,50.8,99.2,,"1 0 0 0"
"6/20/2021, 2:59:00 PM",38.9930944,-76.4276864,11.12205,562.0,0,0.3,-5.3,185.8,0.0,0.0,0.0,190.2,,,4.4,12.4,16.2,28,,,,82.4,52.0,99.2,,"1 0 0 0"
"6/20/2021, 2:54:00 PM",38.9931570,-76.4276610,11.05643,562.0,0,0.3,-5.0,204.1,0.0,292.8,0.2,183.1,,,-20.7,12.1,15.1,28,,,,81.2,54.4,99.2,,"1 0 0 0"
"6/20/2021, 2:49:00 PM",38.9931473,-76.4277008,10.92520,562.0,0,0.5,-5.8,185.9,0.0,355.6,0.4,176.0,,,-9.6,12.5,15.1,28,,,,79.6,53.6,99.2,,"1 0 0 0"
"6/20/2021, 2:44:00 PM",38.9931572,-76.4276583,11.31890,562.0,0.25,0.5,-6.3,188.6,0.0,101.2,0.3,158.8,,,-28.7,7.5,13.9,28,,,,79.6,54.8,99.2,,"1 0 0 0"
"6/20/2021, 2:39:00 PM",38.9931552,-76.4276510,11.41732,562.0,0.25,0.8,-3.8,196.6,0.0,215.7,0.5,198.6,,,1.9,6.4,15.6,28,,,,80.4,56.8,99.2,,"1 0 0 0"
"6/20/2021, 2:34:00 PM",38.9931532,-76.4276786,11.05643,562.0,0.25,0.5,-5.3,192.5,0.0,58.9,0.5,164.5,,,-26.6,8.8,13.8,28,,,,79.6,56.4,99.2,,"1 0 0 0"
"6/20/2021, 2:29:00 PM",38.9931040,-76.4277120,11.05643,562.0,0,0.5,-6.0,192.4,0.0,288.0,0.2,184.7,,,-7.6,11.2,16.9,28,,,,81.2,56.4,99.2,,"1 0 0 0"
"6/20/2021, 2:24:00 PM",38.9931104,-76.4276416,11.41732,562.0,0.25,0.3,-5.0,194.4,0.0,82.9,0.4,194.3,,,-0.1,12.9,16.7,28,,,,81.2,57.6,99.2,,"1 0 0 0"
"6/20/2021, 2:19:00 PM",38.9931590,-76.4276578,11.25328,562.0,0,0.5,-6.0,195.0,0.0,0.0,0.2,156.8,,,-37.7,12.8,14.9,28,,,,79.6,57.6,99.2,,"1 0 0 0"
"6/20/2021, 2:14:00 PM",38.9931445,-76.4276498,11.12205,562.0,0.5,0.5,-7.0,198.8,0.0,89.9,0.2,182.4,,,-16.1,8.3,13.4,28,,,,81.2,56.8,99.2,,"1 0 0 0"
"6/20/2021, 2:09:00 PM",38.9931365,-76.4276940,11.05643,562.0,0.25,0.8,-4.5,187.2,0.0,17.8,0.3,187.5,,,0.3,5.8,14.0,28,,,,81.2,56.4,99.2,,"1 0 0 0"
"6/20/2021, 2:04:00 PM",38.9931616,-76.4276186,11.25328,562.0,0.25,0.5,-4.8,207.9,0.0,64.5,0.2,168.7,,,-38.5,9.9,14.0,28,,,,85.2,56.4,99.2,,"1 0 0 0"
"6/20/2021, 1:59:00 PM",38.9931588,-76.4276478,11.35171,562.0,-1.25,0.5,-5.3,183.6,0.0,0.0,0.0,193.3,,,9.7,11.3,13.1,27.5,,,,83.2,61.6,99.2,,"1 0 0 0"
"6/20/2021, 1:54:00 PM",38.9931383,-76.4276085,11.18766,562.0,-1.5,1.0,-4.8,196.5,0.0,348.9,0.5,179.5,,,-16.3,10.5,15.1,27.5,798,162.75,77,79.6,60.8,99.2,13.2,"1 0 0 0"
"6/20/2021, 1:49:00 PM",38.9923950,-76.4309018,13.15617,562.0,0,0.8,-6.3,75.3,0.0,65.5,7.4,188.2,112.9,13.7,80.9,12.8,15.6,27,2559,162.75,79,78.4,60.4,99.2,13.7,"1 0 0 0"
"6/20/2021, 1:44:00 PM",38.9848173,-76.4384840,18.30709,562.0,0,0.5,-4.0,5.1,0.0,357.5,6.4,175.9,170.8,12.2,161.0,6.0,16.0,26.5,1975,162.5,77,83.6,58.0,99.2,13.7,"1 0 0 0"
"6/20/2021, 1:39:00 PM",38.9838673,-76.4384268,17.32283,562.0,2,0.3,-4.8,331.7,0.0,319.6,3.7,190.2,-141.5,10.4,-124.6,7.9,12.7,26.5,,,,86.0,58.4,99.2,,"1 0 0 0"
"6/20/2021, 1:34:00 PM",38.9795904,-76.4314624,16.40420,562.0,0.75,0.5,-3.0,310.8,0.0,302.7,5.1,177.3,-133.5,12.0,-110.0,9.3,14.1,26.5,,,,88.0,54.8,99.2,,"1 0 0 0"
"6/20/2021, 1:29:00 PM",38.9766304,-76.4232640,9.84252,562.0,4.75,0.5,-2.0,288.2,0.0,283.2,6.0,179.7,-108.5,12.7,-80.8,12.2,17.2,26.5,,,,96.0,63.2,99.2,,"1 0 0 0"
"6/20/2021, 1:24:00 PM",38.9809120,-76.4131136,22.73622,562.0,0.75,0.5,5.3,248.7,0.0,245.4,6.4,180.1,-68.6,10.6,-43.9,14.2,16.3,26.5,,,,99.2,53.2,99.2,,"1 0 0 0"
"6/20/2021, 1:19:00 PM",38.9848490,-76.4030751,27.16535,562.0,-0.75,1.0,2.3,249.4,0.0,242.5,5.3,186.1,-63.3,10.5,-43.2,13.7,14.9,26.5,,,,94.8,58.0,99.2,,"1 0 0 0"
"6/20/2021, 1:14:00 PM",38.9855875,-76.4005676,27.16535,562.0,0.75,0.3,-8.0,73.1,0.0,62.3,5.6,194.4,121.3,10.2,88.1,8.7,11.7,26.5,,,,76.0,61.6,99.2,,"1 0 0 0"
"6/20/2021, 1:09:00 PM",38.9816452,-76.4084601,24.34383,562.0,-0.75,0.3,-8.8,72.7,0.0,59.7,5.9,188.9,116.2,11.8,86.4,10.6,14.7,26.5,,,,72.8,60.8,99.2,,"1 0 0 0"
"6/20/2021, 1:04:00 PM",38.9767232,-76.4188544,13.51706,562.0,1.25,0.3,-11.0,70.5,0.0,59.6,6.9,180.5,110.0,13.5,79.9,12.9,14.9,26.5,,,,70.8,55.6,99.2,,"1 0 0 0"
"6/20/2021, 12:59:00 PM",38.9714218,-76.4293985,17.09318,562.0,-0.5,0.3,-10.0,73.7,0.0,57.2,7.0,172.5,98.8,12.9,68.5,13.7,14.4,26.5,,,,71.6,58.4,99.2,,"1 0 0 0"
"6/20/2021, 12:54:00 PM",38.9671101,-76.4385316,20.53806,562.0,1,0.3,-8.8,73.7,0.0,55.3,4.6,172.7,99.0,8.9,70.0,9.3,13.6,27,,,,78.4,58.4,99.2,,"1 0 0 0"
"6/20/2021, 12:49:00 PM",38.9631616,-76.4456448,19.68504,562.0,0.25,0.3,-9.3,70.7,0.0,54.2,5.0,174.1,103.4,8.8,71.2,9.1,12.5,26.5,,,,76.4,58.4,99.2,,"1 0 0 0"
